,address,checkins,city,country,created,icon,latitude,longitude,title,type,updated,not_updated,created_hf,updated_hf
1,Мячковский б-р 3а,441,1,1,1280741941,https://vk.com/images/places/clubs.png,55.657941,37.751574,Baila Baila,4,1507325266,False,2010-08-02 13:39:01,2017-10-07 00:27:46
2,Дачная 2а,16,123,1,1280741941,https://vk.com/images/places/clubs.png,53.202017,50.141377,Lust,4,1507325319,False,2010-08-02 13:39:01,2017-10-07 00:28:39
3,Лени Голикова 29,7,2,1,1280741941,https://vk.com/images/places/clubs.png,59.843376,30.23148,Тайфун,4,1486398333,False,2010-08-02 13:39:01,2017-02-06 19:25:33
4,Героев Танкограда 63,8,158,1,1280741941,https://vk.com/images/places/clubs.png,55.174954,61.451611,Hollywood,4,1470157376,False,2010-08-02 13:39:01,2016-08-02 20:02:56
5,Мусы Джалиля 14К1,40,99,1,1280741941,https://vk.com/images/places/clubs.png,54.860834,83.091932,Барабас,4,1502604379,False,2010-08-02 13:39:01,2017-08-13 09:06:19
6,Мусы Джалиля 14,6,99,1,1280741941,https://vk.com/images/places/clubs.png,54.861114,83.091415,Опера,4,1471622459,False,2010-08-02 13:39:01,2016-08-19 19:00:59
7,Труда 153,15,158,1,1280741941,https://vk.com/images/places/clubs.png,55.166948,61.395017,Малахит,4,1470755251,False,2010-08-02 13:39:01,2016-08-09 18:07:31
8,Сони Кривой 81,3,158,1,1280741941,https://vk.com/images/places/clubs.png,55.157006,61.365395,Полет,4,1455942973,False,2010-08-02 13:39:01,2016-02-20 07:36:13
9,просп. Ленина 66а,197,158,1,1280741941,https://vk.com/images/places/clubs.png,55.160365,61.380302,Уральские пельмени,4,1507300810,False,2010-08-02 13:39:01,2017-10-06 17:40:10
10,Гурьянова 31,14,1,1,1280741941,https://vk.com/images/places/clubs.png,55.684858,37.7183,Salvador Dali,4,1498625432,False,2010-08-02 13:39:01,2017-06-28 07:50:32
11,Энгельса 1К1,1,99,1,1280741941,https://vk.com/images/places/clubs.png,54.871906,83.106557,Четыре комнаты,4,1485185205,False,2010-08-02 13:39:01,2017-01-23 18:26:45
12,Железноводская 68,3,2,1,1280741941,https://vk.com/images/places/clubs.png,59.949213,30.234373,Занзибар,4,1497797386,False,2010-08-02 13:39:01,2017-06-18 17:49:46
13,ул.Красная 24,2,2,1,1280741941,https://vk.com/images/places/clubs.png,59.960462,30.286592,Проект,4,1424342052,False,2010-08-02 13:39:01,2015-02-19 13:34:12
14,Полтавская 7,1,2,1,1280741941,https://vk.com/images/places/clubs.png,59.92672,30.368536,La,4,1497797405,False,2010-08-02 13:39:01,2017-06-18 17:50:05
15,2-я Брестская 6,5,1,1,1280741941,https://vk.com/images/places/clubs.png,55.770968,37.591562,Моспроект,4,1444136906,False,2010-08-02 13:39:01,2015-10-06 16:08:26
16,2-ая Боровая 11б,4,10,1,1280741941,https://vk.com/images/places/clubs.png,48.721596,44.535346,Зажигалка,4,1487744022,False,2010-08-02 13:39:01,2017-02-22 09:13:42
17,Мира 23,2,49,1,1280741941,https://vk.com/images/places/clubs.png,56.840941,60.652137,Центр мира,4,1491670267,False,2010-08-02 13:39:01,2017-04-08 19:51:07
18,Московский проспект 20,6,99,1,1280741941,https://vk.com/images/places/clubs.png,55.029394,82.933293,The Past Pavilion,4,1408181395,False,2010-08-02 13:39:01,2014-08-16 13:29:55
19,Ланское ш. 15,19,2,1,1280741941,https://vk.com/images/places/clubs.png,59.991147,30.307604,Вертеп Карабаса Барабаса,4,1495043270,False,2010-08-02 13:39:01,2017-05-17 20:47:50
20,Лубянский пр. 25К1,0,1,1,1280741941,https://vk.com/images/places/clubs.png,55.757116,37.63146,Дом Кукера,4,1344699423,False,2010-08-02 13:39:01,2012-08-11 19:37:03
21,Литейный пр. ,8,158,1,1280741941,https://vk.com/images/places/clubs.png,55.151862,61.304467,Летняя веранда Geometria,4,1400922818,False,2010-08-02 13:39:01,2014-05-24 13:13:38
22,Новослободская 26,2,1,1,1280741941,https://vk.com/images/places/clubs.png,55.783104,37.598025,Хроника-бар,4,1398172658,False,2010-08-02 13:39:01,2014-04-22 17:17:38
23,Черноморская 37а,0,72,1,1280741941,https://vk.com/images/places/clubs.png,45.030744,39.107527,Какаду,4,1490787184,False,2010-08-02 13:39:01,2017-03-29 14:33:04
24,ская 208,0,72,1,1280741941,https://vk.com/images/places/clubs.png,55.676783,37.762449,СУ-27,4,1449301456,False,2010-08-02 13:39:01,2015-12-05 10:44:16
25,Богданова 138,5,72,1,1280741941,https://vk.com/images/places/clubs.png,45.020991,39.000241,Кокос,4,1450843425,False,2010-08-02 13:39:01,2015-12-23 07:03:45
26,Северная 620,6,72,1,1280741941,https://vk.com/images/places/clubs.png,45.039534,38.979894,Распутин,4,1347860252,False,2010-08-02 13:39:01,2012-09-17 09:37:32
27,Мира 1б,1,151,1,1280741941,https://vk.com/images/places/clubs.png,54.813967,56.059096,Goldy,4,1480202182,False,2010-08-02 13:39:01,2016-11-27 02:16:22
28,1-я Останкинская 23,4,1,1,1280741941,https://vk.com/images/places/clubs.png,55.82439,37.622387,Club 23,4,1506604742,False,2010-08-02 13:39:01,2017-09-28 16:19:02
29,Ленина 119,2,49,1,1280741941,https://vk.com/images/places/clubs.png,56.839774,60.615122,Камелот,4,1493653304,False,2010-08-02 13:39:01,2017-05-01 18:41:44
30,ул. 8 Марта 13,5,49,1,1280741941,https://vk.com/images/places/clubs.png,56.83615,60.600448,Down Town,4,1497797598,False,2010-08-02 13:39:01,2017-06-18 17:53:18
31,Кирова 113К2,5,99,1,1280741941,https://vk.com/images/places/clubs.png,55.013007,82.954521,Небо,4,1485262239,False,2010-08-02 13:39:01,2017-01-24 15:50:39
32,Щелковское ш. 5,3,1,1,1280741941,https://vk.com/images/places/clubs.png,55.80402,37.755266,Каста,4,1476629730,False,2010-08-02 13:39:01,2016-10-16 17:55:30
33,Зеленодольская 43,9,1,1,1280741941,https://vk.com/images/places/clubs.png,55.702617,37.766585,Campanello,4,1418312932,False,2010-08-02 13:39:01,2014-12-11 18:48:52
34, 15,17,1,1,1280741941,https://vk.com/images/places/clubs.png,55.930433,37.852652,Atoll,4,1487145750,False,2010-08-02 13:39:01,2017-02-15 11:02:30
35,Покровка 18К18,49,1,1,1280741941,https://vk.com/images/places/clubs.png,55.758808,37.646435,Карибы,4,1503338119,False,2010-08-02 13:39:01,2017-08-21 20:55:19
36,наб. Мартынова 94,11,2,1,1280741941,https://vk.com/images/places/clubs.png,59.975815,30.245647,RT-1,4,1431799139,False,2010-08-02 13:39:01,2015-05-16 20:58:59
37,пр. Большевиков 59б,3,123,1,1280741941,https://vk.com/images/places/clubs.png,53.211897,50.209922,Золотая чаша,4,1484323377,False,2010-08-02 13:39:01,2017-01-13 19:02:57
38,М. Сухаревская пл. 70а,2,57,1,1280741941,https://vk.com/images/places/clubs.png,52.342141,104.213358,Barracuda,4,1469999342,False,2010-08-02 13:39:01,2016-08-01 00:09:02
39,Кастанаевская 38,4,1,1,1280741941,https://vk.com/images/places/clubs.png,55.73587,37.479627,Стрела,4,1503869683,False,2010-08-02 13:39:01,2017-08-28 00:34:43
40,7-й Северный Форт ,0,57,1,1280741941,https://vk.com/images/places/clubs.png,52.313021,104.27568,Leto Project,4,,True,2010-08-02 13:39:01,2010-08-02 13:39:01
41,новочеркасский 29К1,180,1,1,1280741941,https://vk.com/images/places/clubs.png,55.653665,37.76672,Жажда,4,1507411443,False,2010-08-02 13:39:01,2017-10-08 00:24:03
42,Ланское шоссе 48,0,42,1,1280741941,https://vk.com/images/places/clubs.png,51.680157,39.175467,Tarantul,4,1352796109,False,2010-08-02 13:39:01,2012-11-13 12:41:49
43,Комсомольская 2,12,151,1,1280741941,https://vk.com/images/places/clubs.png,54.737465,55.990797,Sova,4,1487875573,False,2010-08-02 13:39:01,2017-02-23 21:46:13
44,просп. Мира 119,4,1,1,1280741941,https://vk.com/images/places/clubs.png,55.828703,37.633688,M-Club,4,1343241861,False,2010-08-02 13:39:01,2012-07-25 22:44:21
45,просп. Мира 150,13,1,1,1280741941,https://vk.com/images/places/clubs.png,55.822463,37.646768,Happyland,4,1477952343,False,2010-08-02 13:39:01,2016-11-01 01:19:03
46,Маяковского 65К1,64,1,1,1280741941,https://vk.com/images/places/clubs.png,55.730466,37.623726,FAQ-Caf?,4,1497797772,False,2010-08-02 13:39:01,2017-06-18 17:56:12
47,Волков пер. 13К1,1,1,1,1280741941,https://vk.com/images/places/clubs.png,55.76365,37.574013,Все свои,4,1398891495,False,2010-08-02 13:39:01,2014-05-01 00:58:15
48,3-я ул. Ямского поля 15,5,1,1,1280741941,https://vk.com/images/places/clubs.png,55.782486,37.579381,Мажор Холл,4,1481352467,False,2010-08-02 13:39:01,2016-12-10 09:47:47
49,Попова 6,1,49,1,1280741941,https://vk.com/images/places/clubs.png,56.83617,60.592444,Tele-port,4,1339512172,False,2010-08-02 13:39:01,2012-06-12 18:42:52
50,Дачная 2,15,123,1,1280741941,https://vk.com/images/places/clubs.png,53.20206,50.141302,Айсберг,4,1505886970,False,2010-08-02 13:39:01,2017-09-20 08:56:10
51,Толмачева 12,3,49,1,1280741941,https://vk.com/images/places/clubs.png,56.838258,60.61024,Квартира,4,1317407641,False,2010-08-02 13:39:01,2011-09-30 22:34:01
52,Блюхера 58,6,49,1,1280741941,https://vk.com/images/places/clubs.png,56.846095,60.632455,F1,4,1489065837,False,2010-08-02 13:39:01,2017-03-09 16:23:57
53,Тельмана 46,4,72,1,1280741941,https://vk.com/images/places/clubs.png,45.04084,38.987512,V-Twin,4,1450563400,False,2010-08-02 13:39:01,2015-12-20 01:16:40
54,Большой просп. П.С. 43,4,2,1,1280741941,https://vk.com/images/places/clubs.png,59.960769,30.304882,Держись,4,1481833684,False,2010-08-02 13:39:01,2016-12-15 23:28:04
55,просп. Ленина 97,0,87,1,1280741941,https://vk.com/images/places/clubs.png,68.975689,33.094932,Умка,4,1334576477,False,2010-08-02 13:39:01,2012-04-16 15:41:17
56,Летниковская 6а,2,1,1,1280741941,https://vk.com/images/places/clubs.png,55.726056,37.644585,Восточный дом,4,1476253334,False,2010-08-02 13:39:01,2016-10-12 09:22:14
57,Холодильный пер. 3,52,1,1,1280741941,https://vk.com/images/places/clubs.png,55.708917,37.625451,Tuning Hall,4,1478730326,False,2010-08-02 13:39:01,2016-11-10 01:25:26
58,Первомайская ул. 16,0,49,1,1280741941,https://vk.com/images/places/clubs.png,56.817774,60.676729,PV,4,1337959046,False,2010-08-02 13:39:01,2012-05-25 19:17:26
59,Б.Никитская 19К13,0,1,1,1280741941,https://vk.com/images/places/clubs.png,55.756974,37.600963,Blues Time,4,,True,2010-08-02 13:39:01,2010-08-02 13:39:01
60,Паустовского 8К1,9,1,1,1280741941,https://vk.com/images/places/clubs.png,55.599072,37.538373,Икенга,4,1444593384,False,2010-08-02 13:39:01,2015-10-11 22:56:24
61,Санкт-Петербургскийский 6,0,158,1,1280741941,https://vk.com/images/places/clubs.png,55.157428,61.394918,Sugar Free,4,1408264235,False,2010-08-02 13:39:01,2014-08-17 12:30:35
62,Московский просп. 97,1,2,1,1280741941,https://vk.com/images/places/clubs.png,59.893231,30.317243,Моссoncert,4,1464604059,False,2010-08-02 13:39:01,2016-05-30 13:27:39
63,Новопесчаная 12,10,1,1,1280741941,https://vk.com/images/places/clubs.png,55.798849,37.513233,Питер,4,1503000130,False,2010-08-02 13:39:01,2017-08-17 23:02:10
64,Берсеневская наб. 6К3,14,1,1,1280741941,https://vk.com/images/places/clubs.png,55.740603,37.609254,Палитра,4,1387435202,False,2010-08-02 13:39:01,2013-12-19 10:40:02
65,Театральный пр. 3К3,80,1,1,1280741941,https://vk.com/images/places/clubs.png,55.759993,37.622603,Мастерская,4,1474554797,False,2010-08-02 13:39:01,2016-09-22 17:33:17
66,Новослободская 46,2,1,1,1280741941,https://vk.com/images/places/clubs.png,55.785792,37.595609,Рэй,4,1350145859,False,2010-08-02 13:39:01,2012-10-13 20:30:59
67,Донская 15,4,1,1,1280741941,https://vk.com/images/places/clubs.png,55.723693,37.608113,Newton Bar,4,1408196873,False,2010-08-02 13:39:01,2014-08-16 17:47:53
68,Вавилова 65,10,1,1,1280741941,https://vk.com/images/places/clubs.png,55.684655,37.554394,X.O.,4,1505327248,False,2010-08-02 13:39:01,2017-09-13 21:27:28
69,Дзержинского 98а,3,134,1,1280741941,https://vk.com/images/places/clubs.png,45.044998,41.978031,Live city dance hall,4,1461591668,False,2010-08-02 13:39:01,2016-04-25 16:41:08
70,Ломоносова 72К2,0,72,1,1280741941,https://vk.com/images/places/clubs.png,45.022074,38.979418,Караганда,4,1347262494,False,2010-08-02 13:39:01,2012-09-10 11:34:54
71,Стартовая 19а,4,483,1,1280741941,https://vk.com/images/places/clubs.png,55.837879,37.300431,Пятница,4,1465751310,False,2010-08-02 13:39:01,2016-06-12 20:08:30
72,Подзеленье ,83,169,1,1280741941,https://vk.com/images/places/clubs.png,57.621166,39.897002,Мед,4,1499128457,False,2010-08-02 13:39:01,2017-07-04 03:34:17
73,Дачная 2,33,123,1,1280741941,https://vk.com/images/places/clubs.png,53.201974,50.141302,Оперетта,4,1496731818,False,2010-08-02 13:39:01,2017-06-06 09:50:18
74,Комендантский 47,21,2,1,1280741941,https://vk.com/images/places/clubs.png,59.89973,30.289799,Place,4,1487878373,False,2010-08-02 13:39:01,2017-02-23 22:32:53
75,Токарей 24,1,49,1,1280741941,https://vk.com/images/places/clubs.png,56.837957,60.561362,Mixx,4,1500713892,False,2010-08-02 13:39:01,2017-07-22 11:58:12
76,Профессора Баранова 34,1,61,1,1280741941,https://vk.com/images/places/clubs.png,54.721312,20.510802,Moon,4,1350827048,False,2010-08-02 13:39:01,2012-10-21 17:44:08
77,Металлистов 10,9,49,1,1280741941,https://vk.com/images/places/clubs.png,56.810847,61.331191,Riviera,4,1448539284,False,2010-08-02 13:39:01,2015-11-26 15:01:24
78,Большая Монетная 7,6,1,1,1280741941,https://vk.com/images/places/clubs.png,55.725706,37.673457,Tabula Rasa,4,1440187616,False,2010-08-02 13:39:01,2015-08-21 23:06:56
79,Профсоюзная 27К1,2,1,1,1280741941,https://vk.com/images/places/clubs.png,55.673869,37.559505,Джазман,4,1469052377,False,2010-08-02 13:39:01,2016-07-21 01:06:17
80,Опалихинская 15,0,49,1,1280741941,https://vk.com/images/places/clubs.png,56.848699,60.564452,City,4,1422889469,False,2010-08-02 13:39:01,2015-02-02 18:04:29
81,ул. Казанская 7,0,2,1,1280741941,https://vk.com/images/places/clubs.png,59.933519,30.323863,Kvartal,4,1343684308,False,2010-08-02 13:39:01,2012-07-31 01:38:28
82,Куйбышева 4,0,110,1,1280741941,https://vk.com/images/places/clubs.png,58.014536,56.232632,Loco,4,,True,2010-08-02 13:39:01,2010-08-02 13:39:01
83,Гоголя 1,8,112,1,1280741941,https://vk.com/images/places/clubs.png,61.783937,34.366201,"""Barcelona"" Cafe-Bar-Club",4,1389215639,False,2010-08-02 13:39:01,2014-01-09 01:13:59
84,промзона 1а,1,95,1,1280741941,https://vk.com/images/places/clubs.png,56.34282,43.835082,Рим,4,1353399862,False,2010-08-02 13:39:01,2012-11-20 12:24:22
85,М.Бронная 10,1,1,1,1280741941,https://vk.com/images/places/clubs.png,55.760722,37.596669,Rush,4,1391184609,False,2010-08-02 13:39:01,2014-01-31 20:10:09
86,Ниж.Сусальный пер. 5К15а,10,1,1,1280741941,https://vk.com/images/places/clubs.png,55.76129,37.663068,Воздух,4,1351503991,False,2010-08-02 13:39:01,2012-10-29 13:46:31
87,Таганская 2,2,1,1,1280741941,https://vk.com/images/places/clubs.png,55.73549,37.616953,Mixtura,4,1354090093,False,2010-08-02 13:39:01,2012-11-28 12:08:13
88,просп. Энгельса 154,0,2,1,1280741941,https://vk.com/images/places/clubs.png,60.058668,30.336112,Запой,4,,True,2010-08-02 13:39:01,2010-08-02 13:39:01
89,Крымский вал 3К2,4,1,1,1280741941,https://vk.com/images/places/clubs.png,55.72927,37.609124,Pridebar,4,1447351752,False,2010-08-02 13:39:01,2015-11-12 21:09:12
90,Б.Златоустинский пер. 7,68,1,1,1280741941,https://vk.com/images/places/clubs.png,55.758686,37.632768,Bourbon Street,4,1507409987,False,2010-08-02 13:39:01,2017-10-07 23:59:47
91,М.Посадская 19,1,2,1,1280741941,https://vk.com/images/places/clubs.png,59.957859,30.330169,Антресоль,4,1365719750,False,2010-08-02 13:39:01,2013-04-12 02:35:50
92,1-й Смоленский пер. 3,4,1,1,1280741941,https://vk.com/images/places/clubs.png,55.746608,37.57969,Mafia,4,1353429568,False,2010-08-02 13:39:01,2012-11-20 20:39:28
93,Новозаводская 27,10,1,1,1280741941,https://vk.com/images/places/clubs.png,55.749729,37.498788,Главклуб,4,1496731489,False,2010-08-02 13:39:01,2017-06-06 09:44:49
94,Земляной Вал 75,24,1,1,1280741941,https://vk.com/images/places/clubs.png,55.745985,37.655975,Double Bourbon,4,1495206933,False,2010-08-02 13:39:01,2017-05-19 18:15:33
95,Баррикадная 5,10,859,1,1280741941,https://vk.com/images/places/clubs.png,55.910276,37.856758,The Best Club,4,1485000981,False,2010-08-02 13:39:01,2017-01-21 15:16:21
96,Таганская пл. 20К13,0,1,1,1280741941,https://vk.com/images/places/clubs.png,55.7664,37.667137,Studio 54,4,,True,2010-08-02 13:39:01,2010-08-02 13:39:01
97,пл. Ломоносова 2К4,0,57,1,1280741941,https://vk.com/images/places/clubs.png,52.262714,104.241476,Полигон,4,1343052876,False,2010-08-02 13:39:01,2012-07-23 18:14:36
98,Паустовского 8К1,8,1,1,1280741941,https://vk.com/images/places/clubs.png,55.599072,37.538273,Шпилька,4,1423505049,False,2010-08-02 13:39:01,2015-02-09 21:04:09
99,Дубининская 69,2,1,1,1280741941,https://vk.com/images/places/clubs.png,55.714921,37.634502,Serebro,4,1460235700,False,2010-08-02 13:39:01,2016-04-10 00:01:40
100,просп. Испытателей 26К2,14,2,1,1280741941,https://vk.com/images/places/clubs.png,60.005873,30.269416,Vinyl Story Club,4,1439145994,False,2010-08-02 13:39:01,2015-08-09 21:46:34
101,Хорошевское ш. 39,10,1,1,1280741941,https://vk.com/images/places/clubs.png,55.777282,37.513682,Закрома Родины,4,1486991368,False,2010-08-02 13:39:01,2017-02-13 16:09:28
102,Волгоградский пр. 6К1,2,1,1,1280741941,https://vk.com/images/places/clubs.png,55.819257,37.564918,Shambor,4,1429364458,False,2010-08-02 13:39:01,2015-04-18 16:40:58
103,Красная 174,6,72,1,1280741941,https://vk.com/images/places/clubs.png,45.044215,38.978466,Infiniti,4,1406984147,False,2010-08-02 13:39:01,2014-08-02 16:55:47
104,Пестеля 7,10,2,1,1280741941,https://vk.com/images/places/clubs.png,59.94188,30.341479,Китайский летчик Джао Да,4,1352833107,False,2010-08-02 13:39:01,2012-11-13 22:58:27
105,Тимирязевская 11,0,1,1,1280741941,https://vk.com/images/places/clubs.png,55.598843,37.516171,Dark Woods,4,1280943098,False,2010-08-02 13:39:01,2010-08-04 21:31:38
106,Бутырский Вал 5,17,1,1,1280741941,https://vk.com/images/places/clubs.png,55.779474,37.58526,Жара,4,1367524324,False,2010-08-02 13:39:01,2013-05-02 23:52:04
107,Декабристов 81,2,60,1,1280741941,https://vk.com/images/places/clubs.png,55.818523,49.092239,Neo Territory,4,1427264345,False,2010-08-02 13:39:01,2015-03-25 09:19:05
108,Полярные Зори 51К33,0,87,1,1280741941,https://vk.com/images/places/clubs.png,67.374576,32.503702,Декабрь,4,,True,2010-08-02 13:39:01,2010-08-02 13:39:01
109,Комсомольская пл. 89,0,123,1,1280741941,https://vk.com/images/places/clubs.png,53.215343,50.24581,Движение,4,1439476666,False,2010-08-02 13:39:01,2015-08-13 17:37:46
110,просп. Гагарина 29,5,95,1,1280741941,https://vk.com/images/places/clubs.png,56.292438,43.979845,Затерянный рай,4,1408089250,False,2010-08-02 13:39:01,2014-08-15 11:54:10
111,М.Дмитровка 23К15,0,1,1,1280741941,https://vk.com/images/places/clubs.png,55.770578,37.604915,Синяя птица,4,1439145999,False,2010-08-02 13:39:01,2015-08-09 21:46:39
112,просп. Ленина 46,0,146,1,1280741941,https://vk.com/images/places/clubs.png,54.184551,37.607601,Анастасия,4,1484314176,False,2010-08-02 13:39:01,2017-01-13 16:29:36
113,Кадашевская наб. 6К1,28,1,1,1280741941,https://vk.com/images/places/clubs.png,55.742833,37.617186,Третьяков,4,1399641889,False,2010-08-02 13:39:01,2014-05-09 17:24:49
114,просп. Победы 168,5,158,1,1280741941,https://vk.com/images/places/clubs.png,55.184896,61.399338,Такси-блюз,4,1420577614,False,2010-08-02 13:39:01,2015-01-06 23:53:34
115,Рабоче-Крестьянская 2К1,4,10,1,1280741941,https://vk.com/images/places/clubs.png,48.699629,44.503815,Калипсо,4,1476551882,False,2010-08-02 13:39:01,2016-10-15 20:18:02
116,М.Сухаревская пл. К38,5,1,1,1280741941,https://vk.com/images/places/clubs.png,55.785017,37.53287,Арсенал,4,1431089197,False,2010-08-02 13:39:01,2015-05-08 15:46:37
117,Мясницкая 13,0,1,1,1280741941,https://vk.com/images/places/clubs.png,55.762449,37.632395,Вос-дух,4,1354178187,False,2010-08-02 13:39:01,2012-11-29 12:36:27
118,Карла Маркса 68,2,42,1,1280741941,https://vk.com/images/places/clubs.png,51.663663,39.206297,Bit Town,4,1335199529,False,2010-08-02 13:39:01,2012-04-23 20:45:29
119,Красная 139,2,72,1,1280741941,https://vk.com/images/places/clubs.png,45.044979,38.977029,Барсук,4,1418831110,False,2010-08-02 13:39:01,2014-12-17 18:45:10
120,Энгельса 107,3,158,1,1280741941,https://vk.com/images/places/clubs.png,55.148765,61.381075,Парк,4,1415599933,False,2010-08-02 13:39:01,2014-11-10 09:12:13
121,Красная 36,9,112,1,1280741941,https://vk.com/images/places/clubs.png,61.789079,34.353688,Контакт,4,1507333902,False,2010-08-02 13:39:01,2017-10-07 02:51:42
122,Ставропольская 12,36,112,1,1280741941,https://vk.com/images/places/clubs.png,61.810098,34.332272,Территория,4,1502716517,False,2010-08-02 13:39:01,2017-08-14 16:15:17
123,Новокузнецкая 59а,3,158,1,1280741941,https://vk.com/images/places/clubs.png,55.162947,61.389232,Монте-Карло,4,1481646028,False,2010-08-02 13:39:01,2016-12-13 19:20:28
124,Свободы 46,13,169,1,1280741941,https://vk.com/images/places/clubs.png,57.626034,39.869164,Старый город,4,1497192647,False,2010-08-02 13:39:01,2017-06-11 17:50:47
125,Сергея Макеева 9,189,1,1,1280741941,https://vk.com/images/places/clubs.png,55.761629,37.550837,Milk,4,1506964060,False,2010-08-02 13:39:01,2017-10-02 20:07:40
126,Рогожский Вал 6К2,3,1,1,1280741941,https://vk.com/images/places/clubs.png,55.742767,37.674526,Platina,4,1369337619,False,2010-08-02 13:39:01,2013-05-23 23:33:39
127,Менделеевская 2,0,146,1,1280741941,https://vk.com/images/places/clubs.png,54.191984,37.623555,Бригантина,4,1316065486,False,2010-08-02 13:39:01,2011-09-15 09:44:46
128,Ясная 2,1,49,1,1280741941,https://vk.com/images/places/clubs.png,56.816336,60.584691,Партия,4,1354719461,False,2010-08-02 13:39:01,2012-12-05 18:57:41
129,Волгоградский просп. 3,5,2,1,1280741941,https://vk.com/images/places/clubs.png,59.962944,30.412051,Free for Fun,4,1421259625,False,2010-08-02 13:39:01,2015-01-14 21:20:25
130,Лубянский пр. 15К2,2,1,1,1280741941,https://vk.com/images/places/clubs.png,55.756619,37.632489,Ля Мур,4,1485939118,False,2010-08-02 13:39:01,2017-02-01 11:51:58
131,Газеты «Звезда» 38б,4,110,1,1280741941,https://vk.com/images/places/clubs.png,58.007494,56.248559,New Star,4,1493046611,False,2010-08-02 13:39:01,2017-04-24 18:10:11
132,Беговая ул. 47,5,49,1,1280741941,https://vk.com/images/places/clubs.png,56.809497,60.601184,Red Cafe,4,1489176765,False,2010-08-02 13:39:01,2017-03-10 23:12:45
133,Маршала Казакова 13,13,2,1,1280741941,https://vk.com/images/places/clubs.png,59.860075,30.236709,Pickup Night Club,4,1503427124,False,2010-08-02 13:39:01,2017-08-22 21:38:44
134,Страстной б-р 8а,8,1,1,1280741941,https://vk.com/images/places/clubs.png,55.766258,37.610867,Babуlon Private Club,4,1389480417,False,2010-08-02 13:39:01,2014-01-12 02:46:57
135,Летниковская 11К10,126,1,1,1280741941,https://vk.com/images/places/clubs.png,55.724545,37.646372,Форум холл,4,1506007070,False,2010-08-02 13:39:01,2017-09-21 18:17:50
136,Малышева 3К2,16,1,1,1280741941,https://vk.com/images/places/clubs.png,55.701957,37.742735,От заката до рассвета,4,1506195369,False,2010-08-02 13:39:01,2017-09-23 22:36:09
137,Комсомольский просп. 28,1,1,1,1280741941,https://vk.com/images/places/clubs.png,55.727019,37.579681,Maska,4,1353173698,False,2010-08-02 13:39:01,2012-11-17 21:34:58
138,Газетный пер. 84,2,119,1,1280741941,https://vk.com/images/places/clubs.png,47.2272,39.714105,Асмолов,4,1415977754,False,2010-08-02 13:39:01,2014-11-14 18:09:14
139,факс)Новопесчаная 233б,4,119,1,1280741941,https://vk.com/images/places/clubs.png,47.234941,39.732162,Камасутра,4,1494272086,False,2010-08-02 13:39:01,2017-05-08 22:34:46
140,Лиговский просп. 50К13,7,2,1,1280741941,https://vk.com/images/places/clubs.png,59.925259,30.358139,Jesus,4,1390481354,False,2010-08-02 13:39:01,2014-01-23 16:49:14
141,Бауманская 5,17,625,1,1280741941,https://vk.com/images/places/clubs.png,56.344391,37.510628,Гелиос,4,1422006152,False,2010-08-02 13:39:01,2015-01-23 12:42:32
142,пл. Киевского Вокзала 2,61,1,1,1280741941,https://vk.com/images/places/clubs.png,55.74449,37.566302,Face,4,1479829094,False,2010-08-02 13:39:01,2016-11-22 18:38:14
143,Московская 75,72,78,1,1280741941,https://vk.com/images/places/clubs.png,52.608197,39.532349,Мегаполис,4,1507400323,False,2010-08-02 13:39:01,2017-10-07 21:18:43
144,Кузнецкий мост 3,2,1,1,1280741941,https://vk.com/images/places/clubs.png,55.761224,37.616575,Shelter,4,1458486877,False,2010-08-02 13:39:01,2016-03-20 18:14:37
145,Школьная 21,4,1,1,1280741941,https://vk.com/images/places/clubs.png,55.745808,37.672109,Old Street,4,1493467056,False,2010-08-02 13:39:01,2017-04-29 14:57:36
146,Усиевича 12К14,0,1,1,1280741941,https://vk.com/images/places/clubs.png,55.806267,37.528285,Manhattan,4,1421991528,False,2010-08-02 13:39:01,2015-01-23 08:38:48
147,Братиславская ,16,158,1,1280741941,https://vk.com/images/places/clubs.png,55.070035,60.107668,Van Gogh,4,1506813691,False,2010-08-02 13:39:01,2017-10-01 02:21:31
148,просп. Испытателей ,1,2,1,1280741941,https://vk.com/images/places/clubs.png,60.004586,30.285519,Malina,4,1345534546,False,2010-08-02 13:39:01,2012-08-21 11:35:46
149,Невский просп. 32К34,4,2,1,1280741941,https://vk.com/images/places/clubs.png,59.935534,30.328561,RAFINAD,4,1351964889,False,2010-08-02 13:39:01,2012-11-03 21:48:09
150,Республиканская 3К4,96,169,1,1280741941,https://vk.com/images/places/clubs.png,57.640084,39.885908,Король Королю,4,1496906182,False,2010-08-02 13:39:01,2017-06-08 10:16:22
151,Гоголя 15,135,99,1,1280741941,https://vk.com/images/places/clubs.png,55.043154,82.92405,Изюм,4,1507390303,False,2010-08-02 13:39:01,2017-10-07 18:31:43
152,Подольская 21,4,60,1,1280741941,https://vk.com/images/places/clubs.png,55.786764,49.122903,Тихое место,4,1351930904,False,2010-08-02 13:39:01,2012-11-03 12:21:44
153,Октябрьская 35,35,99,1,1280741941,https://vk.com/images/places/clubs.png,55.025003,82.919019,Rublev Bar,4,1493398992,False,2010-08-02 13:39:01,2017-04-28 20:03:12
154,добавочный 1а,5,42,1,1280741941,https://vk.com/images/places/clubs.png,51.653282,39.174568,Black and White,4,1355670999,False,2010-08-02 13:39:01,2012-12-16 19:16:39
155,Декабристов пл. 10,11,1,1,1280741941,https://vk.com/images/places/clubs.png,55.764085,37.487335,Бульвар,4,1488609928,False,2010-08-02 13:39:01,2017-03-04 09:45:28
156,наб. Большой Невки 10,13,110,1,1280741941,https://vk.com/images/places/clubs.png,58.008052,56.183863,Студклуб ПГУ,4,1499171606,False,2010-08-02 13:39:01,2017-07-04 15:33:26
157,Жуковского 102,54,99,1,1280741941,https://vk.com/images/places/clubs.png,55.0619,82.891297,Танцуки,4,1506170249,False,2010-08-02 13:39:01,2017-09-23 15:37:29
158,Верхний ,7,99,1,1280741941,https://vk.com/images/places/clubs.png,55.04157,82.934075,Красная площадь,4,1490342516,False,2010-08-02 13:39:01,2017-03-24 11:01:56
159,Ленинградский просп. 31,765,1,1,1280741941,https://vk.com/images/places/clubs.png,55.785994,37.559056,Arena Moscow,4,1506074200,False,2010-08-02 13:39:01,2017-09-22 12:56:40
160,выборгская 14,3,1,1,1280741941,https://vk.com/images/places/clubs.png,55.752242,37.633167,Лед,4,1354388918,False,2010-08-02 13:39:01,2012-12-01 23:08:38
161,Комендантский просп. 271,10,2,1,1280741941,https://vk.com/images/places/clubs.png,60.018425,30.24845,Take Five,4,1466759190,False,2010-08-02 13:39:01,2016-06-24 12:06:30
162,Забелина 1,3,1,1,1280741941,https://vk.com/images/places/clubs.png,55.754466,37.637367,Подвал на Солянке,4,1456810987,False,2010-08-02 13:39:01,2016-03-01 08:43:07
163,Петрозаводская 22,0,1,1,1280741941,https://vk.com/images/places/clubs.png,55.77716,37.565003,Times,4,1351286838,False,2010-08-02 13:39:01,2012-10-27 01:27:18
164,Липецкая 10,2,133,1,1280741941,https://vk.com/images/places/clubs.png,43.605614,39.715731,Agava,4,1435967164,False,2010-08-02 13:39:01,2015-07-04 02:46:04
165,Красных Партизан 204,1,72,1,1280741941,https://vk.com/images/places/clubs.png,45.049666,38.964848,Chicago,4,1415469012,False,2010-08-02 13:39:01,2014-11-08 20:50:12
166,Шпалерная 24,0,2,1,1280741941,https://vk.com/images/places/clubs.png,59.94946,30.350902,Пегас,4,1342913520,False,2010-08-02 13:39:01,2012-07-22 03:32:00
167,наб. канала Грибоедова 7,3,2,1,1280741941,https://vk.com/images/places/clubs.png,59.938982,30.327381,Бархат,4,1347703068,False,2010-08-02 13:39:01,2012-09-15 13:57:48
168,Тушинская ,8,146,1,1280741941,https://vk.com/images/places/clubs.png,54.190994,37.612757,Комплекс «Карамболь»,4,1455323799,False,2010-08-02 13:39:01,2016-02-13 03:36:39
169,Щукинская ,0,146,1,1280741941,https://vk.com/images/places/clubs.png,54.18846,37.681146,Петушки,4,,True,2010-08-02 13:39:01,2010-08-02 13:39:01
170,Д Ульянова 23,2,146,1,1280741941,https://vk.com/images/places/clubs.png,54.191747,37.584496,Бавария,4,1395998806,False,2010-08-02 13:39:01,2014-03-28 13:26:46
171,Ломоносовский пр. 5,6,146,1,1280741941,https://vk.com/images/places/clubs.png,54.511823,37.0514,Summer Club,4,1470776262,False,2010-08-02 13:39:01,2016-08-09 23:57:42
172,просп. Ленина 82,4,87,1,1280741941,https://vk.com/images/places/clubs.png,68.971302,33.077546,The Centre,4,1393937860,False,2010-08-02 13:39:01,2014-03-04 16:57:40
173,Ф.Энгельса 66,4,146,1,1280741941,https://vk.com/images/places/clubs.png,54.176525,37.594081,Чили,4,1391970598,False,2010-08-02 13:39:01,2014-02-09 22:29:58
174,Петроградская наб. ,7,2,1,1280741941,https://vk.com/images/places/clubs.png,59.957185,30.335727,Забава-бар,4,1506535428,False,2010-08-02 13:39:01,2017-09-27 21:03:48
175,Садовая 11,0,2,1,1280741941,https://vk.com/images/places/clubs.png,59.935412,30.334948,Seven Rooms,4,1407974721,False,2010-08-02 13:39:01,2014-08-14 04:05:21
176,Комендантский просп. 9К2,1,2,1,1280741941,https://vk.com/images/places/clubs.png,60.005459,30.263398,Versailles,4,1359788285,False,2010-08-02 13:39:01,2013-02-02 10:58:05
177,Страстной б-р 4К3,1,1,1,1280741941,https://vk.com/images/places/clubs.png,55.764987,37.608472,Пурга,4,1282085350,False,2010-08-02 13:39:01,2010-08-18 02:49:10
178,Маяковскай 71,4,61,1,1280741941,https://vk.com/images/places/clubs.png,54.681373,20.482882,Подводная лодка,4,1481460952,False,2010-08-02 13:39:01,2016-12-11 15:55:52
179,Марата 23,0,2,1,1280741941,https://vk.com/images/places/clubs.png,59.927874,30.352537,Barry White,4,,True,2010-08-02 13:39:01,2010-08-02 13:39:01
180,Бекетова 73а,3,95,1,1280741941,https://vk.com/images/places/clubs.png,56.293857,44.03051,Звезда,4,1497085930,False,2010-08-02 13:39:01,2017-06-10 12:12:10
181,Лесная 23,5,123,1,1280741941,https://vk.com/images/places/clubs.png,53.213078,50.125984,Леди-Рай,4,1445445356,False,2010-08-02 13:39:01,2015-10-21 19:35:56
182,осковский просп 37,4,60,1,1280741941,https://vk.com/images/places/clubs.png,55.767438,49.183867,Банзай,4,1393077272,False,2010-08-02 13:39:01,2014-02-22 17:54:32
183,Средний просп. В.О. ,0,2,1,1280741941,https://vk.com/images/places/clubs.png,59.938725,30.263496,Dance jazz-hall,4,1349473207,False,2010-08-02 13:39:01,2012-10-06 01:40:07
184,Болотная наб. 9а,8,1,1,1280741941,https://vk.com/images/places/clubs.png,55.740841,37.611212,Элизиум,4,1385848680,False,2010-08-02 13:39:01,2013-12-01 01:58:00
185,Ворошиловский просп. 12,1,119,1,1280741941,https://vk.com/images/places/clubs.png,47.219936,39.720259,Тема,4,1336629565,False,2010-08-02 13:39:01,2012-05-10 09:59:25
186,Невский 2а,20,1463,1,1280741941,https://vk.com/images/places/clubs.png,55.996198,37.21696,Bell Pub,4,1465678951,False,2010-08-02 13:39:01,2016-06-12 00:02:31
187,Максима Горького 87,2,99,1,1280741941,https://vk.com/images/places/clubs.png,55.028068,82.928604,Оскар,4,1350639907,False,2010-08-02 13:39:01,2012-10-19 13:45:07
188,3-я Советская 7,1,2,1,1280741941,https://vk.com/images/places/clubs.png,59.932117,30.369471,Галар «Кампот»,4,1312373961,False,2010-08-02 13:39:01,2011-08-03 16:19:21
189,Невский просп. 7К9,10,2,1,1280741941,https://vk.com/images/places/clubs.png,59.936544,30.313829,Celebrity,4,1356192071,False,2010-08-02 13:39:01,2012-12-22 20:01:11
190,Енисейская 5К2,4,1,1,1280741941,https://vk.com/images/places/clubs.png,55.858902,37.659578,Sharhouse,4,1420375617,False,2010-08-02 13:39:01,2015-01-04 15:46:57
191,Мориса Тереза просп ,1,119,1,1280741941,https://vk.com/images/places/clubs.png,47.227163,39.744968,Stereo Пляж,4,1438717729,False,2010-08-02 13:39:01,2015-08-04 22:48:49
192,Болдина ,6,146,1,1280741941,https://vk.com/images/places/clubs.png,54.17847,37.573744,Корона,4,1441484463,False,2010-08-02 13:39:01,2015-09-05 23:21:03
193,Шолохова 316,17,119,1,1280741941,https://vk.com/images/places/clubs.png,47.269994,39.824239,Zoloto,4,1500647061,False,2010-08-02 13:39:01,2017-07-21 17:24:21
194,Моховая 11,171,1,1,1280741941,https://vk.com/images/places/clubs.png,55.756184,37.61132,Дума,4,1498591636,False,2010-08-02 13:39:01,2017-06-27 22:27:16
195,Садовая 28-30,9,2,1,1280741941,https://vk.com/images/places/clubs.png,59.928077,30.327645,Черт Побери!,4,1504990310,False,2010-08-02 13:39:01,2017-09-09 23:51:50
196,Сельскохозяйственная 15К3,0,1,1,1280741941,https://vk.com/images/places/clubs.png,55.836686,37.638144,Сирена,4,1381481809,False,2010-08-02 13:39:01,2013-10-11 12:56:49
197,Лесная 43,8,1,1,1280741941,https://vk.com/images/places/clubs.png,55.780709,37.590506,Поляна,4,1369935530,False,2010-08-02 13:39:01,2013-05-30 21:38:50
198,Чапаева 5,16,2,1,1280741941,https://vk.com/images/places/clubs.png,59.958989,30.332747,Baranka,4,1355643966,False,2010-08-02 13:39:01,2012-12-16 11:46:06
199,Новослободская 36К1,13,1,1,1280741941,https://vk.com/images/places/clubs.png,55.784703,37.59648,New York Bar & Lounge,4,1391200362,False,2010-08-02 13:39:01,2014-02-01 00:32:42
200,Заневский просп. 38,7,2,1,1280741941,https://vk.com/images/places/clubs.png,59.933,30.431427,Las Vegas,4,1481914239,False,2010-08-02 13:39:01,2016-12-16 21:50:39
201,Покровка 17,223,1,1,1280741941,https://vk.com/images/places/clubs.png,55.759653,37.645258,Cuba Libre,4,1504726652,False,2010-08-02 13:39:01,2017-09-06 22:37:32
202,Рубинштейна 13,45,2,1,1280741941,https://vk.com/images/places/clubs.png,59.929538,30.343509,Terminal,4,1427619600,False,2010-08-02 13:39:01,2015-03-29 12:00:00
203,Белинского 9,3,2,1,1280741941,https://vk.com/images/places/clubs.png,59.937756,30.346402,Et Cetera,4,1344621614,False,2010-08-02 13:39:01,2012-08-10 22:00:14
204,наб. канала Грибоедова 7,156,2,1,1280741941,https://vk.com/images/places/clubs.png,59.938982,30.327281,Акакао,4,1506366911,False,2010-08-02 13:39:01,2017-09-25 22:15:11
205,Красная 64,169,72,1,1280741941,https://vk.com/images/places/clubs.png,45.026616,38.971405,Сахар,4,1507370431,False,2010-08-02 13:39:01,2017-10-07 13:00:31
206,В. Красносельская 44а,2,10,1,1280741941,https://vk.com/images/places/clubs.png,48.808495,44.767952,Sweet Life,4,1423380883,False,2010-08-02 13:39:01,2015-02-08 10:34:43
207,Ниж.Сусальный пер. 5,1,1,1,1280741941,https://vk.com/images/places/clubs.png,55.761338,37.663033,Aura,4,1395698910,False,2010-08-02 13:39:01,2014-03-25 02:08:30
208,Ленина 8,0,57,1,1280741941,https://vk.com/images/places/clubs.png,52.28858,104.278423,Амстердам,4,,True,2010-08-02 13:39:01,2010-08-02 13:39:01
209,Рождественская 20,123,95,1,1280741941,https://vk.com/images/places/clubs.png,56.328414,43.990311,Shizgara,4,1507328763,False,2010-08-02 13:39:01,2017-10-07 01:26:03
210,Стасова 182,3,72,1,1280741941,https://vk.com/images/places/clubs.png,45.02982,39.046181,Улетов и Ко,4,1482413284,False,2010-08-02 13:39:01,2016-12-22 16:28:04
211,Коломенская 4,3,2,1,1280741941,https://vk.com/images/places/clubs.png,59.925922,30.355592,Киса,4,1497864439,False,2010-08-02 13:39:01,2017-06-19 12:27:19
212,Санкт-петербургское ш. 14,0,112,1,1280741941,https://vk.com/images/places/clubs.png,61.760043,34.438345,Улетай,4,1372967162,False,2010-08-02 13:39:01,2013-07-04 23:46:02
213,В.Первомайская 22К47,18,146,1,1280741941,https://vk.com/images/places/clubs.png,54.039296,38.258098,Nova,4,1391106292,False,2010-08-02 13:39:01,2014-01-30 22:24:52
214,Беговая ,0,146,1,1280741941,https://vk.com/images/places/clubs.png,54.193845,37.619003,Плетенка,4,,True,2010-08-02 13:39:01,2010-08-02 13:39:01
215,Менделеева 160,0,151,1,1280741941,https://vk.com/images/places/clubs.png,54.710402,55.966399,О2,4,1378032041,False,2010-08-02 13:39:01,2013-09-01 14:40:41
216,Льва Толстого 18б,8,1,1,1280741941,https://vk.com/images/places/clubs.png,55.735241,37.585368,Vodka Bar,4,1413094972,False,2010-08-02 13:39:01,2014-10-12 10:22:52
217,Лиговский просп. 50,11,2,1,1280741941,https://vk.com/images/places/clubs.png,59.925302,30.358064,Пьяная груша,4,1501530149,False,2010-08-02 13:39:01,2017-07-31 22:42:29
218,просп. Художников ,8,2,1,1280741941,https://vk.com/images/places/clubs.png,60.043296,30.349744,Вотель-Шале,4,1354149180,False,2010-08-02 13:39:01,2012-11-29 04:33:00
219,Большевистская 88,17,110,1,1280741941,https://vk.com/images/places/clubs.png,58.009773,56.241948,Абырвалг,4,1473867540,False,2010-08-02 13:39:01,2016-09-14 18:39:00
220,Грина 11б,7,1,1,1280741941,https://vk.com/images/places/clubs.png,55.566909,37.566656,Индиго,4,1420140995,False,2010-08-02 13:39:01,2015-01-01 22:36:35
221,Дербеневская 20,21,1,1,1280741941,https://vk.com/images/places/clubs.png,55.721594,37.647738,One Rock,4,1437300652,False,2010-08-02 13:39:01,2015-07-19 13:10:52
222,Кронштадтский б-р 9К3,7,1,1,1280741941,https://vk.com/images/places/clubs.png,55.84262,37.489401,Майер,4,1431688834,False,2010-08-02 13:39:01,2015-05-15 14:20:34
223,Садовая 12,3,2,1,1280741941,https://vk.com/images/places/clubs.png,59.935015,30.336116,BarBar,4,1349535443,False,2010-08-02 13:39:01,2012-10-06 18:57:23
224,Олимпийский просп. 16К1,3,1,1,1280741941,https://vk.com/images/places/clubs.png,55.78116,37.626471,Удар,4,1370455079,False,2010-08-02 13:39:01,2013-06-05 21:57:59
225,Чистопрудный б-р 25,3,1,1,1280741941,https://vk.com/images/places/clubs.png,55.760104,37.646875,Рублев,4,1468615210,False,2010-08-02 13:39:01,2016-07-15 23:40:10
226,2-я Фрунзенская ,0,133,1,1280741941,https://vk.com/images/places/clubs.png,43.582795,39.722321,Плотформа,4,1440867558,False,2010-08-02 13:39:01,2015-08-29 19:59:18
227,Юных Ленинцев 52,7,1,1,1280741941,https://vk.com/images/places/clubs.png,55.699786,37.76548,Visota,4,1455452772,False,2010-08-02 13:39:01,2016-02-14 15:26:12
228,Верности 9,30,2,1,1280741941,https://vk.com/images/places/clubs.png,60.007582,30.398594,Моцарт,4,1465074682,False,2010-08-02 13:39:01,2016-06-05 00:11:22
229,Бебеля 17,3,49,1,1280741941,https://vk.com/images/places/clubs.png,56.844235,60.561551,Нирвана,4,1489480550,False,2010-08-02 13:39:01,2017-03-14 11:35:50
230,Московский просп. 9,5,42,1,1280741941,https://vk.com/images/places/clubs.png,51.684999,39.182815,Пульс,4,1490787217,False,2010-08-02 13:39:01,2017-03-29 14:33:37
231,пересечение Университетской наб. и 1-й линии В.О. ,12,99,1,1280741941,https://vk.com/images/places/clubs.png,54.971636,82.881874,Sky City,4,1385817062,False,2010-08-02 13:39:01,2013-11-30 17:11:02
232,Тельмана 19,6,78,1,1280741941,https://vk.com/images/places/clubs.png,52.620084,39.592806,Солярис,4,1394281516,False,2010-08-02 13:39:01,2014-03-08 16:25:16
233,Смоленский б-р 7К1,1,1,1,1280741941,https://vk.com/images/places/clubs.png,55.73999,37.58438,JazzLife,4,1346087218,False,2010-08-02 13:39:01,2012-08-27 21:06:58
234,Левобережная 69,4,119,1,1280741941,https://vk.com/images/places/clubs.png,47.203917,39.76951,Загородный клуб «Калифорния SUN»,4,1438176665,False,2010-08-02 13:39:01,2015-07-29 16:31:05
235,Бакунинская К2,8,1,1,1280741941,https://vk.com/images/places/clubs.png,55.773191,37.679394,G-Lounge,4,1384041935,False,2010-08-02 13:39:01,2013-11-10 04:05:35
236,Садовая 28К13,3,2,1,1280741941,https://vk.com/images/places/clubs.png,59.930146,30.327636,City Сlub,4,1384806695,False,2010-08-02 13:39:01,2013-11-19 00:31:35
237,Лиговский просп. 53,102,2,1,1280741941,https://vk.com/images/places/clubs.png,59.929136,30.359379,Fish Fabrique,4,1506820970,False,2010-08-02 13:39:01,2017-10-01 04:22:50
238,Садовая К13,9,2,1,1280741941,https://vk.com/images/places/clubs.png,59.935051,30.335074,Money Honey,4,1506929052,False,2010-08-02 13:39:01,2017-10-02 10:24:12
239,Лиговский просп. 174,34,2,1,1280741941,https://vk.com/images/places/clubs.png,59.920785,30.355071,Метро,4,1505375074,False,2010-08-02 13:39:01,2017-09-14 10:44:34
240,Санкт-Петербургскийский просп. ,15,1463,1,1280741941,https://vk.com/images/places/clubs.png,55.984562,37.16015,Дебаркадер,4,1389635571,False,2010-08-02 13:39:01,2014-01-13 21:52:51
241,Б.Морская 46,1,2,1,1280741941,https://vk.com/images/places/clubs.png,59.93163,30.306418,Buddha Bar.spb,4,1442125441,False,2010-08-02 13:39:01,2015-09-13 09:24:01
242,Маяковская 54,0,49,1,1280741941,https://vk.com/images/places/clubs.png,56.898082,60.592408,Миллениум,4,1352567513,False,2010-08-02 13:39:01,2012-11-10 21:11:53
243,угол Кронверкского просп. и Крестьянского пер. 42,1,49,1,1280741941,https://vk.com/images/places/clubs.png,56.778164,60.640495,От заката до рассвета,4,1496732306,False,2010-08-02 13:39:01,2017-06-06 09:58:26
244,Толмачева 18,4,49,1,1280741941,https://vk.com/images/places/clubs.png,56.839651,60.609616,Мастер и Маргарита,4,1400862739,False,2010-08-02 13:39:01,2014-05-23 20:32:19
245,Литейный просп. 33,28,2,1,1280741941,https://vk.com/images/places/clubs.png,59.941042,30.347291,Jimi Hendrix Blues Club,4,1505242508,False,2010-08-02 13:39:01,2017-09-12 21:55:08
246,Бажова 75а,0,49,1,1280741941,https://vk.com/images/places/clubs.png,56.844284,60.626145,Золотой скорпион,4,1342158919,False,2010-08-02 13:39:01,2012-07-13 09:55:19
247,Зеленоградская 9,2,49,1,1280741941,https://vk.com/images/places/clubs.png,56.848798,60.61223,Атмосфера,4,1504407733,False,2010-08-02 13:39:01,2017-09-03 06:02:13
248,Высоцкого 14,10,49,1,1280741941,https://vk.com/images/places/clubs.png,56.841374,60.681045,Carabas,4,1473522646,False,2010-08-02 13:39:01,2016-09-10 18:50:46
249,Дзержинского ,6,49,1,1280741941,https://vk.com/images/places/clubs.png,56.84484,60.605892,Эльдорадо,4,1417534589,False,2010-08-02 13:39:01,2014-12-02 18:36:29
250,Вознесенский просп. 46,4,2,1,1280741941,https://vk.com/images/places/clubs.png,59.920754,30.308655,Луна,4,1352575126,False,2010-08-02 13:39:01,2012-11-10 23:18:46
251,Фурманова 109,0,49,1,1280741941,https://vk.com/images/places/clubs.png,56.813242,60.593486,Провокация,4,1409049751,False,2010-08-02 13:39:01,2014-08-26 14:42:31
252,Московская 29,1,49,1,1280741941,https://vk.com/images/places/clubs.png,56.837391,60.582338,Five,4,1344821686,False,2010-08-02 13:39:01,2012-08-13 05:34:46
253,Челюскинцев ,0,49,1,1280741941,https://vk.com/images/places/clubs.png,56.849704,60.592165,Пятый океан,4,,True,2010-08-02 13:39:01,2010-08-02 13:39:01
254,ул. 8 Марта 43,0,49,1,1280741941,https://vk.com/images/places/clubs.png,56.825936,60.604989,Антрэ,4,1323754052,False,2010-08-02 13:39:01,2011-12-13 09:27:32
255,Толмачева 18,0,49,1,1280741941,https://vk.com/images/places/clubs.png,56.839651,60.609516,Moloko,4,1462569299,False,2010-08-02 13:39:01,2016-05-07 00:14:59
256,Высоцкого 22,2,49,1,1280741941,https://vk.com/images/places/clubs.png,56.841443,60.686542,Novelty Club,4,1432052939,False,2010-08-02 13:39:01,2015-05-19 19:28:59
257,Пушкина 2,0,49,1,1280741941,https://vk.com/images/places/clubs.png,56.835835,60.609826,Pushkina2,4,1344636700,False,2010-08-02 13:39:01,2012-08-11 02:11:40
258,ул. 8 Марта 5,63,49,1,1280741941,https://vk.com/images/places/clubs.png,56.839577,60.598714,Пушкин Bar & Basement,4,1502433799,False,2010-08-02 13:39:01,2017-08-11 09:43:19
259,Вайнера 40,6,49,1,1280741941,https://vk.com/images/places/clubs.png,56.831403,60.595588,DaBar,4,1389114390,False,2010-08-02 13:39:01,2014-01-07 21:06:30
260,ул. 8 Марта 212,0,49,1,1280741941,https://vk.com/images/places/clubs.png,56.78597,60.605295,Империя страсти,4,1380360814,False,2010-08-02 13:39:01,2013-09-28 13:33:34
261,Первомайская 74,29,49,1,1280741941,https://vk.com/images/places/clubs.png,56.844589,60.63859,Метрополия,4,1492272850,False,2010-08-02 13:39:01,2017-04-15 19:14:10
262,д. Жуковка 13а,1,49,1,1280741941,https://vk.com/images/places/clubs.png,56.834461,60.676832,DJ Pub,4,1419837172,False,2010-08-02 13:39:01,2014-12-29 10:12:52
263,Зеленоградская 9,0,49,1,1280741941,https://vk.com/images/places/clubs.png,56.848841,60.612155,Сети,4,,True,2010-08-02 13:39:01,2010-08-02 13:39:01
264,Кантемировская 14К10,1,60,1,1280741941,https://vk.com/images/places/clubs.png,55.792969,49.113735,El Macho,4,1352289357,False,2010-08-02 13:39:01,2012-11-07 15:55:57
265,Баумана ,0,60,1,1280741941,https://vk.com/images/places/clubs.png,55.792893,49.110453,Три мушкетера,4,,True,2010-08-02 13:39:01,2010-08-02 13:39:01
266,Правобулачная 47а,3,60,1,1280741941,https://vk.com/images/places/clubs.png,55.786793,49.122893,Сахара,4,1414774654,False,2010-08-02 13:39:01,2014-10-31 19:57:34
267,Автозаводская 1,1,60,1,1280741941,https://vk.com/images/places/clubs.png,55.825386,49.043792,Мурена,4,1412944292,False,2010-08-02 13:39:01,2014-10-10 16:31:32
268,Московская 1а,1,60,1,1280741941,https://vk.com/images/places/clubs.png,55.793865,49.103509,Le Chat,4,1335295103,False,2010-08-02 13:39:01,2012-04-24 23:18:23
269,Парижской Коммуны 25К39,0,60,1,1280741941,https://vk.com/images/places/clubs.png,55.781124,49.112582,Red Fox,4,1347121338,False,2010-08-02 13:39:01,2012-09-08 20:22:18
270,Автозаводская 5,11,60,1,1280741941,https://vk.com/images/places/clubs.png,55.824111,49.046469,Центр клубной жизни,4,1472487835,False,2010-08-02 13:39:01,2016-08-29 19:23:55
271,просп. Ленина ,1,49,1,1280741941,https://vk.com/images/places/clubs.png,56.839774,60.615022,Желтая подводная лодка,4,1417302625,False,2010-08-02 13:39:01,2014-11-30 02:10:25
272,Тухачевского 13,1,134,1,1280741941,https://vk.com/images/places/clubs.png,45.014581,41.917412,Нил,4,1352378451,False,2010-08-02 13:39:01,2012-11-08 16:40:51
273,Сибирский тракт 34б,0,49,1,1280741941,https://vk.com/images/places/clubs.png,56.818558,60.66651,Небо,4,1497343055,False,2010-08-02 13:39:01,2017-06-13 11:37:35
274,Уральская ,0,49,1,1280741941,https://vk.com/images/places/clubs.png,56.858179,60.60105,Альбион,4,,True,2010-08-02 13:39:01,2010-08-02 13:39:01
275,Доваторцев 30б,6,134,1,1280741941,https://vk.com/images/places/clubs.png,45.026132,41.937023,Дорис,4,1502050148,False,2010-08-02 13:39:01,2017-08-06 23:09:08
276,Хрущевский Вал 1,3,60,1,1280741941,https://vk.com/images/places/clubs.png,55.786812,49.122868,51 Штат,4,1415405824,False,2010-08-02 13:39:01,2014-11-08 03:17:04
277,Ленина 293а,4,134,1,1280741941,https://vk.com/images/places/clubs.png,45.038426,41.949985,Z-клуб,4,1482749892,False,2010-08-02 13:39:01,2016-12-26 13:58:12
278,Пушкина 29а,3,60,1,1280741941,https://vk.com/images/places/clubs.png,55.792281,49.124529,Doctor Club,4,1357082029,False,2010-08-02 13:39:01,2013-01-02 03:13:49
279,Пушкина 17,7,60,1,1280741941,https://vk.com/images/places/clubs.png,55.788895,49.123392,Арена,4,1459817602,False,2010-08-02 13:39:01,2016-04-05 03:53:22
280,просп. Академика Сахарова 14,60,1,1,1280741941,https://vk.com/images/places/clubs.png,55.769135,37.643076,Каприз,4,1507409747,False,2010-08-02 13:39:01,2017-10-07 23:55:47
281,Буркова 17,0,87,1,1280741941,https://vk.com/images/places/clubs.png,68.962382,33.078664,Пирамида,4,1324162308,False,2010-08-02 13:39:01,2011-12-18 02:51:48
282,просп. Ленина 82,0,87,1,1280741941,https://vk.com/images/places/clubs.png,68.971345,33.077471,Планета,4,,True,2010-08-02 13:39:01,2010-08-02 13:39:01
283,Вавилова 69,7,1,1,1280741941,https://vk.com/images/places/clubs.png,55.68296,37.55151,Бакара,4,1395902600,False,2010-08-02 13:39:01,2014-03-27 10:43:20
284,Сходненская 2а,2,87,1,1280741941,https://vk.com/images/places/clubs.png,68.996249,33.09518,Рандеву,4,1414184052,False,2010-08-02 13:39:01,2014-10-25 00:54:12
285,М.Сухаревская 1,0,87,1,1280741941,https://vk.com/images/places/clubs.png,68.975005,33.080586,Седьмой континент,4,,True,2010-08-02 13:39:01,2010-08-02 13:39:01
286,Кольский просп. 27,1,87,1,1280741941,https://vk.com/images/places/clubs.png,68.944536,33.099226,Сфера,4,1415484449,False,2010-08-02 13:39:01,2014-11-09 01:07:29
287,Волгоградскийпросп. 2а,1,87,1,1280741941,https://vk.com/images/places/clubs.png,68.935755,33.117785,The Club,4,1335758681,False,2010-08-02 13:39:01,2012-04-30 08:04:41
288,Кольский просп. 130,34,87,1,1280741941,https://vk.com/images/places/clubs.png,68.921997,33.104203,Бриллиантовая рука,4,1507412585,False,2010-08-02 13:39:01,2017-10-08 00:43:05
289,Книповича 17,13,87,1,1280741941,https://vk.com/images/places/clubs.png,68.959655,33.077756,Ледокол,4,1495628576,False,2010-08-02 13:39:01,2017-05-24 15:22:56
290,Ниж.Первомайская 22,5,87,1,1280741941,https://vk.com/images/places/clubs.png,68.911082,33.085455,Гольфстрим,4,1488139793,False,2010-08-02 13:39:01,2017-02-26 23:09:53
291,Воровского 5К23,34,87,1,1280741941,https://vk.com/images/places/clubs.png,68.969817,33.072465,М-клуб,4,1504959559,False,2010-08-02 13:39:01,2017-09-09 15:19:19
292,Локомотивный ,116,2,1,1280741941,https://vk.com/images/places/clubs.png,59.981802,30.293347,Zimaleto,4,1478990563,False,2010-08-02 13:39:01,2016-11-13 01:42:43
293,Даниловская наб. 201,2,6154,1,1280741941,https://vk.com/images/places/clubs.png,53.529701,33.732786,Le Bateau Ivre,4,1348835206,False,2010-08-02 13:39:01,2012-09-28 16:26:46
294,Потаповский пер. 5К2,7,1,1,1280741941,https://vk.com/images/places/clubs.png,55.761674,37.640632,Louvre,4,1399915185,False,2010-08-02 13:39:01,2014-05-12 21:19:45
295,пер. Гривцова 11,10,2,1,1280741941,https://vk.com/images/places/clubs.png,59.927513,30.316174,Бардак,4,1382348673,False,2010-08-02 13:39:01,2013-10-21 13:44:33
296,Славянская пл. 2К1,16,1,1,1280741941,https://vk.com/images/places/clubs.png,55.75357,37.635148,"Sorry, Babushka",4,1401891819,False,2010-08-02 13:39:01,2014-06-04 18:23:39
297,корп. 532 7,0,1,1,1280741941,https://vk.com/images/places/clubs.png,55.787725,37.616036,In Time,4,1353095035,False,2010-08-02 13:39:01,2012-11-16 23:43:55
298,Ярцевская 25а,6,1,1,1280741941,https://vk.com/images/places/clubs.png,55.740999,37.415505,Юрта,4,1396353977,False,2010-08-02 13:39:01,2014-04-01 16:06:17
299,Казакова 8,6,1,1,1280741941,https://vk.com/images/places/clubs.png,55.76247,37.66026,Ikra,4,1399717554,False,2010-08-02 13:39:01,2014-05-10 14:25:54
300,М.Кисловский пер. 6,5,1,1,1280741941,https://vk.com/images/places/clubs.png,55.754735,37.603478,Подмосковье,4,1497200871,False,2010-08-02 13:39:01,2017-06-11 20:07:51
301,Стремянная 16,0,2,1,1280741941,https://vk.com/images/places/clubs.png,59.931093,30.352286,Жажда,4,1345882473,False,2010-08-02 13:39:01,2012-08-25 12:14:33
302,Б.Лубянка 13К16,4,1,1,1280741941,https://vk.com/images/places/clubs.png,55.764111,37.628855,Жесть,4,1451484467,False,2010-08-02 13:39:01,2015-12-30 17:07:47
303,Певческий пер. 6,1,1,1,1280741941,https://vk.com/images/places/clubs.png,55.751796,37.641719,Экспедиция,4,1460323135,False,2010-08-02 13:39:01,2016-04-11 00:18:55
304,дер. Жуковка 8,8,1,1,1280741941,https://vk.com/images/places/clubs.png,55.735925,37.455516,Алтайна,4,1352914797,False,2010-08-02 13:39:01,2012-11-14 21:39:57
305,Покровка 16К1,111,1,1,1280741941,https://vk.com/images/places/clubs.png,55.758651,37.64604,"Кафе, прежде известное как «Кризис жанра»",4,1506112380,False,2010-08-02 13:39:01,2017-09-22 23:33:00
306,Сергея Макеева 9К1,2,1,1,1280741941,https://vk.com/images/places/clubs.png,55.757182,37.550378,О2ТВ,4,1385043476,False,2010-08-02 13:39:01,2013-11-21 18:17:56
307,Минская 2г,37,1,1,1280741941,https://vk.com/images/places/clubs.png,55.734004,37.489904,Кутузов-холл,4,1507097336,False,2010-08-02 13:39:01,2017-10-04 09:08:56
308,Семеновская пл. ,7,1,1,1280741941,https://vk.com/images/places/clubs.png,55.832217,37.629313,Крамбамбуля,4,1344102306,False,2010-08-02 13:39:01,2012-08-04 21:45:06
309,24-й км Киевского ш. 6,0,2,1,1280741941,https://vk.com/images/places/clubs.png,59.915034,30.314673,Street Life,4,,True,2010-08-02 13:39:01,2010-08-02 13:39:01
310,Милютинский пер. 13,4,1,1,1280741941,https://vk.com/images/places/clubs.png,55.764921,37.63182,Hardcore,4,1322664436,False,2010-08-02 13:39:01,2011-11-30 18:47:16
311,Думская 9,55,2,1,1280741941,https://vk.com/images/places/clubs.png,59.932842,30.327445,Улитка на склоне,4,1506196222,False,2010-08-02 13:39:01,2017-09-23 22:50:22
312,Революционная 146,187,123,1,1280741941,https://vk.com/images/places/clubs.png,53.194001,50.180044,Метелица-С,4,1507418042,False,2010-08-02 13:39:01,2017-10-08 02:14:02
313,Комсомольский просп. 28,0,1,1,1280741941,https://vk.com/images/places/clubs.png,55.727019,37.579681,Арагоста,4,1322197698,False,2010-08-02 13:39:01,2011-11-25 09:08:18
314,наб. Обводного канала 181,0,2,1,1280741941,https://vk.com/images/places/clubs.png,59.909463,30.294332,Рокси,4,1343427393,False,2010-08-02 13:39:01,2012-07-28 02:16:33
315,Спиридоньевский пер. 2,1,1,1,1280741941,https://vk.com/images/places/clubs.png,55.761654,37.593381,Экипаж,4,1379715710,False,2010-08-02 13:39:01,2013-09-21 02:21:50
316,Б.Ордынка 40К1,5,1,1,1280741941,https://vk.com/images/places/clubs.png,55.736584,37.623905,Cotton Club,4,1347824369,False,2010-08-02 13:39:01,2012-09-16 23:39:29
317,Кировоградская 36а,9,1,1,1280741941,https://vk.com/images/places/clubs.png,55.603202,37.599067,Goodwin,4,1446486781,False,2010-08-02 13:39:01,2015-11-02 20:53:01
318,Гиляровского 4К2,323,1,1,1280741941,https://vk.com/images/places/clubs.png,55.77472,37.630751,Эгоистка,4,1507431404,False,2010-08-02 13:39:01,2017-10-08 05:56:44
319,Дмитровское ш. 27,0,1,1,1280741941,https://vk.com/images/places/clubs.png,55.826554,37.571318,Cadilluck,4,1401088585,False,2010-08-02 13:39:01,2014-05-26 11:16:25
320,Серпуховский Вал 17,5,1,1,1280741941,https://vk.com/images/places/clubs.png,55.710824,37.613207,Живой уголок,4,1377285220,False,2010-08-02 13:39:01,2013-08-23 23:13:40
321,Рождественка 6К9,40,1,1,1280741941,https://vk.com/images/places/clubs.png,55.760859,37.623834,Spirit,4,1432737363,False,2010-08-02 13:39:01,2015-05-27 17:36:03
322,Гарибальди 19,21,1,1,1280741941,https://vk.com/images/places/clubs.png,55.672686,37.549875,Оркестрион,4,1485599642,False,2010-08-02 13:39:01,2017-01-28 13:34:02
323,Пушечная 9К6,0,1,1,1280741941,https://vk.com/images/places/clubs.png,55.760824,37.624462,Арт`Эриа,4,,True,2010-08-02 13:39:01,2010-08-02 13:39:01
324,Трубниковский пер. 11,3,1,1,1280741941,https://vk.com/images/places/clubs.png,55.753215,37.586356,One More,4,1371390691,False,2010-08-02 13:39:01,2013-06-16 17:51:31
325,Стромынка 6,6,1,1,1280741941,https://vk.com/images/places/clubs.png,55.791253,37.687336,Бакинский дворик,4,1487459206,False,2010-08-02 13:39:01,2017-02-19 02:06:46
326,1-я Тверская-Ямская 9,5,1,1,1280741941,https://vk.com/images/places/clubs.png,55.772097,37.591916,Sungate,4,1368653912,False,2010-08-02 13:39:01,2013-05-16 01:38:32
327,Луганская 14,2,2,1,1280741941,https://vk.com/images/places/clubs.png,59.902149,30.384859,Fort MC,4,1430314395,False,2010-08-02 13:39:01,2015-04-29 16:33:15
328,Варшавское ш. 135а,6,1,1,1280741941,https://vk.com/images/places/clubs.png,55.59572,37.602651,Миг-21,4,1422793454,False,2010-08-02 13:39:01,2015-02-01 15:24:14
329,1-я Останкинская 53,69,1,1,1280741941,https://vk.com/images/places/clubs.png,55.824314,37.632053,Mezzo Forte,4,1506191551,False,2010-08-02 13:39:01,2017-09-23 21:32:31
330,Мясницкая 13,3,1,1,1280741941,https://vk.com/images/places/clubs.png,55.762449,37.632395,Starz,4,1355003759,False,2010-08-02 13:39:01,2012-12-09 01:55:59
331,наб. реки Мойки 82,0,2,1,1280741941,https://vk.com/images/places/clubs.png,59.929867,30.303462,Объект,4,1349528287,False,2010-08-02 13:39:01,2012-10-06 16:58:07
332,Милютинский пер. 6К1,2,1,1,1280741941,https://vk.com/images/places/clubs.png,55.762019,37.63222,База,4,1341426749,False,2010-08-02 13:39:01,2012-07-04 22:32:29
333,Олимпийский просп. 16К1,9,1,1,1280741941,https://vk.com/images/places/clubs.png,55.781203,37.626396,Анфилада,4,1414142729,False,2010-08-02 13:39:01,2014-10-24 13:25:29
334,Пушечная 9К6,0,1,1,1280741941,https://vk.com/images/places/clubs.png,55.760824,37.624462,Hungry Duck,4,,True,2010-08-02 13:39:01,2010-08-02 13:39:01
335,Свердловский просп. 51,2,158,1,1280741941,https://vk.com/images/places/clubs.png,55.168922,61.391276,BeenGo,4,1355540965,False,2010-08-02 13:39:01,2012-12-15 07:09:25
336,Правды 1,0,1,1,1280741941,https://vk.com/images/places/clubs.png,55.783149,37.575172,Jimi,4,1352232950,False,2010-08-02 13:39:01,2012-11-07 00:15:50
337,Октябрьская 53,0,78,1,1280741941,https://vk.com/images/places/clubs.png,52.601634,39.596225,Камин,4,1337109329,False,2010-08-02 13:39:01,2012-05-15 23:15:29
338,38-й км Ярославского ш. 19,3,78,1,1280741941,https://vk.com/images/places/clubs.png,52.388988,38.927415,Galaxy,4,1438689623,False,2010-08-02 13:39:01,2015-08-04 15:00:23
339,Софьи Перовской 25К26,0,87,1,1280741941,https://vk.com/images/places/clubs.png,68.970837,33.087746,Пивной дом,4,1352528579,False,2010-08-02 13:39:01,2012-11-10 10:22:59
340,Кирова 161,1,158,1,1280741941,https://vk.com/images/places/clubs.png,55.164305,61.401943,Deja-Vu,4,1348045983,False,2010-08-02 13:39:01,2012-09-19 13:13:03
341,Старостина 2,7,87,1,1280741941,https://vk.com/images/places/clubs.png,68.967013,33.103322,Айсберг,4,1489255744,False,2010-08-02 13:39:01,2017-03-11 21:09:04
342,Варшавское ш. 27,60,1,1,1280741941,https://vk.com/images/places/clubs.png,55.69352,37.622046,Нэо,4,1503067223,False,2010-08-02 13:39:01,2017-08-18 17:40:23
343,Бардина 21а,0,49,1,1280741941,https://vk.com/images/places/clubs.png,56.803041,60.556116,Родонит-95,4,1349807361,False,2010-08-02 13:39:01,2012-10-09 22:29:21
344,Варшавская 23,5,2,1,1280741941,https://vk.com/images/places/clubs.png,59.874241,30.311107,Столица,4,1375384673,False,2010-08-02 13:39:01,2013-08-01 23:17:53
345,просп. Ленина 35,40,158,1,1280741941,https://vk.com/images/places/clubs.png,55.160123,61.415728,Madflat,4,1471348838,False,2010-08-02 13:39:01,2016-08-16 15:00:38
346,ул. 8 Марта 43,1,49,1,1280741941,https://vk.com/images/places/clubs.png,56.825936,60.604889,Арлекино,4,1505483274,False,2010-08-02 13:39:01,2017-09-15 16:47:54
347,Зеленоградская 9,3,49,1,1280741941,https://vk.com/images/places/clubs.png,56.848755,60.612155,Водолей,4,1401136062,False,2010-08-02 13:39:01,2014-05-27 00:27:42
348,"Кронштадт, Макаровская 1",0,2,1,1280741941,https://vk.com/images/places/clubs.png,59.929249,30.333682,Центральная станция,4,,True,2010-08-02 13:39:01,2010-08-02 13:39:01
349,Моховая 37,1,2,1,1280741941,https://vk.com/images/places/clubs.png,59.940244,30.344237,Pin-Up,4,1338600975,False,2010-08-02 13:39:01,2012-06-02 05:36:15
350,Красноармейская 10,5,49,1,1280741941,https://vk.com/images/places/clubs.png,56.837179,60.615135,Чили,4,1457118075,False,2010-08-02 13:39:01,2016-03-04 22:01:15
351,ул. 50 лет ВЛКСМ 5,19,134,1,1280741941,https://vk.com/images/places/clubs.png,45.020112,41.924204,Новый Рим,4,1506053287,False,2010-08-02 13:39:01,2017-09-22 07:08:07
352,Сулимова 50,230,49,1,1280741941,https://vk.com/images/places/clubs.png,56.863336,60.630856,Park House,4,1507106607,False,2010-08-02 13:39:01,2017-10-04 11:43:27
353,1-я линия В.О. ,0,2,1,1280741941,https://vk.com/images/places/clubs.png,59.943724,30.288119,S-club,4,1317505317,False,2010-08-02 13:39:01,2011-10-02 01:41:57
354,ул. 8 Марта 212,0,49,1,1280741941,https://vk.com/images/places/clubs.png,56.78597,60.605195,Static,4,,True,2010-08-02 13:39:01,2010-08-02 13:39:01
355,просп. Октября 79К1,44,151,1,1280741941,https://vk.com/images/places/clubs.png,54.77305,56.021663,Правда,4,1495882043,False,2010-08-02 13:39:01,2017-05-27 13:47:23
356,Братьев Фонченко 12,0,151,1,1280741941,https://vk.com/images/places/clubs.png,54.794591,55.866192,Чаша,4,1411114935,False,2010-08-02 13:39:01,2014-09-19 12:22:15
357,Лесотехникума 49К1,0,151,1,1280741941,https://vk.com/images/places/clubs.png,54.751554,56.029541,Элемент,4,1370769611,False,2010-08-02 13:39:01,2013-06-09 13:20:11
358,Бутлерова 16,0,60,1,1280741941,https://vk.com/images/places/clubs.png,55.7865,49.130629,Коммуна,4,1354351249,False,2010-08-02 13:39:01,2012-12-01 12:40:49
359,Пушкина 28,3,60,1,1280741941,https://vk.com/images/places/clubs.png,55.791233,49.125,Fashion Club,4,1381153771,False,2010-08-02 13:39:01,2013-10-07 17:49:31
360,Новомарьинская 19,20,151,1,1280741941,https://vk.com/images/places/clubs.png,54.738001,55.971264,Колизео,4,1459531856,False,2010-08-02 13:39:01,2016-04-01 20:30:56
361,просп. Октября 91,34,151,1,1280741941,https://vk.com/images/places/clubs.png,54.777214,56.028921,Проспект,4,1501409441,False,2010-08-02 13:39:01,2017-07-30 13:10:41
362,Мира 14,5,151,1,1280741941,https://vk.com/images/places/clubs.png,54.813822,56.066767,Книжка,4,1502293992,False,2010-08-02 13:39:01,2017-08-09 18:53:12
363,Рихарда Зорге 17,17,151,1,1280741941,https://vk.com/images/places/clubs.png,54.75277,55.986593,Agava,4,1486485239,False,2010-08-02 13:39:01,2017-02-07 19:33:59
364,Балаклавский просп. 7,0,1,1,1280741941,https://vk.com/images/places/clubs.png,55.640772,37.603289,Дион,4,1323477549,False,2010-08-02 13:39:01,2011-12-10 04:39:09
365,Ахметова 311К1,3,151,1,1280741941,https://vk.com/images/places/clubs.png,54.791959,55.876747,Зодиак,4,1423478683,False,2010-08-02 13:39:01,2015-02-09 13:44:43
366,ЦПКиО им. Горького 3,17,1,1,1280741941,https://vk.com/images/places/clubs.png,55.744566,37.651897,Высоцкий,4,1377712170,False,2010-08-02 13:39:01,2013-08-28 21:49:30
367,наб. 62-й Армии 6,0,10,1,1280741941,https://vk.com/images/places/clubs.png,48.708898,44.514258,Golden Night,4,1385403262,False,2010-08-02 13:39:01,2013-11-25 22:14:22
368,Островского 5,3,10,1,1280741941,https://vk.com/images/places/clubs.png,48.709404,44.517882,Белая лошадь,4,1495387531,False,2010-08-02 13:39:01,2017-05-21 20:25:31
369,Б.Тульская ,1,146,1,1280741941,https://vk.com/images/places/clubs.png,54.120321,37.54665,Даяна,4,1367684479,False,2010-08-02 13:39:01,2013-05-04 20:21:19
370,Б.Садовая 64,0,119,1,1280741941,https://vk.com/images/places/clubs.png,47.227206,39.744943,Джотто,4,,True,2010-08-02 13:39:01,2010-08-02 13:39:01
371,Горького 141,59,95,1,1280741941,https://vk.com/images/places/clubs.png,56.31574,44.00595,Teatro,4,1503777936,False,2010-08-02 13:39:01,2017-08-26 23:05:36
372,Луначарского 85а,3,49,1,1280741941,https://vk.com/images/places/clubs.png,56.84705,60.619411,Ча-И,4,1492797440,False,2010-08-02 13:39:01,2017-04-21 20:57:20
373,наб. 62-й Армии 6,7,10,1,1280741941,https://vk.com/images/places/clubs.png,48.708948,44.514208,Пиранья,4,1472416173,False,2010-08-02 13:39:01,2016-08-28 23:29:33
374,Мира 5,3,10,1,1280741941,https://vk.com/images/places/clubs.png,48.707781,44.512367,Romeo,4,1422557981,False,2010-08-02 13:39:01,2015-01-29 21:59:41
375,Краснознаменская 8,12,10,1,1280741941,https://vk.com/images/places/clubs.png,48.704267,44.510992,Каир,4,1431781040,False,2010-08-02 13:39:01,2015-05-16 15:57:20
376,Коломенская 23К25,86,1,1,1280741941,https://vk.com/images/places/clubs.png,55.770861,37.631981,Сахар,4,1440283148,False,2010-08-02 13:39:01,2015-08-23 01:39:08
377,50-летия Октября 19,0,151,1,1280741941,https://vk.com/images/places/clubs.png,54.738051,55.971214,Pit stop,4,,True,2010-08-02 13:39:01,2010-08-02 13:39:01
378,Большакова 90б,193,49,1,1280741941,https://vk.com/images/places/clubs.png,56.817287,60.594223,Уралец,4,1504301036,False,2010-08-02 13:39:01,2017-09-02 00:23:56
379,Парижской Коммуны 26,27,60,1,1280741941,https://vk.com/images/places/clubs.png,55.780709,49.11025,Manhattan Club,4,1407848173,False,2010-08-02 13:39:01,2014-08-12 16:56:13
380,Соляной пер. 14,0,2,1,1280741941,https://vk.com/images/places/clubs.png,59.94321,30.341955,Муха-цокотуха,4,1333367707,False,2010-08-02 13:39:01,2012-04-02 15:55:07
381,Староваганьковский пер. 9,0,1,1,1280741941,https://vk.com/images/places/clubs.png,55.750905,37.606227,Алоэ,4,,True,2010-08-02 13:39:01,2010-08-02 13:39:01
382,просп. Энгельса ,0,2,1,1280741941,https://vk.com/images/places/clubs.png,60.046576,30.330421,Король Плющ,4,1375986712,False,2010-08-02 13:39:01,2013-08-08 22:31:52
383,Александровский парк 4,17,2,1,1280741941,https://vk.com/images/places/clubs.png,59.953754,30.317494,Parkking,4,1507305899,False,2010-08-02 13:39:01,2017-10-06 19:04:59
384,Тургеневская пл. 11,8,158,1,1280741941,https://vk.com/images/places/clubs.png,55.171247,61.451611,Панта Рэй,4,1476827566,False,2010-08-02 13:39:01,2016-10-19 00:52:46
385,Октябрьская 12,2,37,1,1280741941,https://vk.com/images/places/clubs.png,43.123636,131.889213,Ex Jumanji,4,1354664865,False,2010-08-02 13:39:01,2012-12-05 03:47:45
386,Свердловский просп. 51а,21,158,1,1280741941,https://vk.com/images/places/clubs.png,55.169725,61.391765,DJ Парк Inside,4,1404582313,False,2010-08-02 13:39:01,2014-07-05 21:45:13
387,Чистопрудный бульвар 93,1,158,1,1280741941,https://vk.com/images/places/clubs.png,55.131007,61.43342,Аврора,4,1493831005,False,2010-08-02 13:39:01,2017-05-03 20:03:25
388,Новая 57,12,158,1,1280741941,https://vk.com/images/places/clubs.png,55.161471,61.409147,Baden Baden,4,1506249759,False,2010-08-02 13:39:01,2017-09-24 13:42:39
389,Энтузиастов 11,214,158,1,1280741941,https://vk.com/images/places/clubs.png,55.155808,61.376314,Garage Underground,4,1507219226,False,2010-08-02 13:39:01,2017-10-05 19:00:26
390,наб. канала Грибоедова 26,0,2,1,1280741941,https://vk.com/images/places/clubs.png,59.936422,30.327474,10 ангелов,4,1370698646,False,2010-08-02 13:39:01,2013-06-08 17:37:26
391,Мусы Джалиля 11,93,99,1,1280741941,https://vk.com/images/places/clubs.png,54.862653,83.08996,Бункер,4,1507419258,False,2010-08-02 13:39:01,2017-10-08 02:34:18
392,Пушкина 29а,204,60,1,1280741941,https://vk.com/images/places/clubs.png,55.792281,49.124429,Luxor,4,1506806249,False,2010-08-02 13:39:01,2017-10-01 00:17:29
393,Угличская 12К2,1,1,1,1280741941,https://vk.com/images/places/clubs.png,55.896797,37.568965,Musik,4,1354187469,False,2010-08-02 13:39:01,2012-11-29 15:11:09
394,"Кузнецкий Мост, 17",7,1,1,1280741941,https://vk.com/images/places/clubs.png,55.784091,37.584757,Про100 бар,4,1405284602,False,2010-08-02 13:39:01,2014-07-14 00:50:02
395,Средняя 8а,4,1,1,1280741941,https://vk.com/images/places/clubs.png,55.603258,37.731164,99,4,1354256146,False,2010-08-02 13:39:01,2012-11-30 10:15:46
396,Объединения 27,5,99,1,1280741941,https://vk.com/images/places/clubs.png,55.09745,82.964905,Современник,4,1484458563,False,2010-08-02 13:39:01,2017-01-15 08:36:03
397,Полярные Зори 51К33,0,87,1,1280741941,https://vk.com/images/places/clubs.png,67.374576,32.503602,Лоцман,4,,True,2010-08-02 13:39:01,2010-08-02 13:39:01
398,Забелина 1,7,1,1,1280741941,https://vk.com/images/places/clubs.png,55.754466,37.637267,Ультра,4,1417468759,False,2010-08-02 13:39:01,2014-12-02 00:19:19
399,Ленинградская 75,0,158,1,1280741941,https://vk.com/images/places/clubs.png,55.158184,61.379018,Shury Mury,4,1323759714,False,2010-08-02 13:39:01,2011-12-13 11:01:54
400,Восточная ,2,49,1,1280741941,https://vk.com/images/places/clubs.png,56.837667,60.633443,Goa,4,1501690350,False,2010-08-02 13:39:01,2017-08-02 19:12:30
401,ул. 8 Марта 46,0,49,1,1280741941,https://vk.com/images/places/clubs.png,56.829143,60.599585,Каре-клуб,4,1345813254,False,2010-08-02 13:39:01,2012-08-24 17:00:54
402,Леонтьевская 17,4,99,1,1280741941,https://vk.com/images/places/clubs.png,54.860036,83.084678,Мадагаскар,4,1438982557,False,2010-08-02 13:39:01,2015-08-08 00:22:37
403,Челюскинцев 15,0,99,1,1280741941,https://vk.com/images/places/clubs.png,55.040162,82.90661,Diesel,4,1349237087,False,2010-08-02 13:39:01,2012-10-03 08:04:47
404,Оранжерейная 6,6,99,1,1280741941,https://vk.com/images/places/clubs.png,54.986588,82.815506,Ferrum,4,1442511228,False,2010-08-02 13:39:01,2015-09-17 20:33:48
405,Селезнева 46,0,99,1,1280741941,https://vk.com/images/places/clubs.png,55.045274,82.946714,Base,4,1349541584,False,2010-08-02 13:39:01,2012-10-06 20:39:44
406,Удальцова 75а,18,1,1,1280741941,https://vk.com/images/places/clubs.png,55.678062,37.495797,Folk Club,4,1489981205,False,2010-08-02 13:39:01,2017-03-20 06:40:05
407,Каменская 19,4,99,1,1280741941,https://vk.com/images/places/clubs.png,55.027057,82.928829,Арт-дача,4,1463586020,False,2010-08-02 13:39:01,2016-05-18 18:40:20
408,Советская ,2,99,1,1280741941,https://vk.com/images/places/clubs.png,55.033264,82.915512,Аквариум,4,1354505795,False,2010-08-02 13:39:01,2012-12-03 07:36:35
409,Московская 10,5,169,1,1280741941,https://vk.com/images/places/clubs.png,57.585008,39.834462,Авангард,4,1489224774,False,2010-08-02 13:39:01,2017-03-11 12:32:54
410,Свободы 34в,4,169,1,1280741941,https://vk.com/images/places/clubs.png,57.626598,39.874257,Комета-бум,4,1390327566,False,2010-08-02 13:39:01,2014-01-21 22:06:06
411,Гагарина 9,0,169,1,1280741941,https://vk.com/images/places/clubs.png,57.588617,39.851224,Партизан,4,1352399331,False,2010-08-02 13:39:01,2012-11-08 22:28:51
412,Собинова 15К14,0,169,1,1280741941,https://vk.com/images/places/clubs.png,57.629335,39.88298,Тарзан,4,1333998046,False,2010-08-02 13:39:01,2012-04-09 23:00:46
413,Новодеревенская 30,3,169,1,1280741941,https://vk.com/images/places/clubs.png,57.653917,39.964969,Айсберг,4,1442549474,False,2010-08-02 13:39:01,2015-09-18 07:11:14
414,Волжская наб. 2,3,169,1,1280741941,https://vk.com/images/places/clubs.png,57.632578,39.894451,Joy Party,4,1387290561,False,2010-08-02 13:39:01,2013-12-17 18:29:21
415,В. Красносельская 136,3,10,1,1280741941,https://vk.com/images/places/clubs.png,48.808543,44.767917,Белая акула,4,1340399661,False,2010-08-02 13:39:01,2012-06-23 01:14:21
416,В. Красносельская 47а,1,10,1,1280741941,https://vk.com/images/places/clubs.png,48.808524,44.767862,Какаду,4,1308079052,False,2010-08-02 13:39:01,2011-06-14 23:17:32
417,Мушникова ,3,151,1,1280741941,https://vk.com/images/places/clubs.png,54.780179,56.116561,Гольфстрим,4,1447435560,False,2010-08-02 13:39:01,2015-11-13 20:26:00
418,Богдана Хмельницкого 11,3,99,1,1280741941,https://vk.com/images/places/clubs.png,55.068406,82.939231,Ва-банк,4,1505130982,False,2010-08-02 13:39:01,2017-09-11 14:56:22
419,Толмачева 12,4,49,1,1280741941,https://vk.com/images/places/clubs.png,56.838258,60.61024,Салют,4,1476468738,False,2010-08-02 13:39:01,2016-10-14 21:12:18
420,Энгельса 1К1,2,99,1,1280741941,https://vk.com/images/places/clubs.png,54.871906,83.106457,Черная кошка,4,1458799727,False,2010-08-02 13:39:01,2016-03-24 09:08:47
421,просп. Карла Маркса 49,12,99,1,1280741941,https://vk.com/images/places/clubs.png,54.991098,82.908302,Щука,4,1476074400,False,2010-08-02 13:39:01,2016-10-10 07:40:00
422,Павильон Урицкого 15,1,99,1,1280741941,https://vk.com/images/places/clubs.png,55.0333,82.913203,Эгоист,4,1334413569,False,2010-08-02 13:39:01,2012-04-14 18:26:09
423,Широкая 15,18,99,1,1280741941,https://vk.com/images/places/clubs.png,54.846084,82.965795,Бумеранг,4,1474097670,False,2010-08-02 13:39:01,2016-09-17 10:34:30
424,Ватутина 17К1,51,99,1,1280741941,https://vk.com/images/places/clubs.png,54.986578,82.891243,Бегемот,4,1488396674,False,2010-08-02 13:39:01,2017-03-01 22:31:14
425,Советская ,1,99,1,1280741941,https://vk.com/images/places/clubs.png,55.033307,82.915437,Голодный койот,4,1355664999,False,2010-08-02 13:39:01,2012-12-16 17:36:39
426,Железнодорожная 46,0,99,1,1280741941,https://vk.com/images/places/clubs.png,55.083668,82.963019,Winners,4,1348338062,False,2010-08-02 13:39:01,2012-09-22 22:21:02
427,Красный просп. 52,1,99,1,1280741941,https://vk.com/images/places/clubs.png,55.035911,82.919585,Джага,4,1344609536,False,2010-08-02 13:39:01,2012-08-10 18:38:56
428,Добролюбова 2К3,1,99,1,1280741941,https://vk.com/images/places/clubs.png,55.002573,82.943642,Золотой галеон,4,1343543782,False,2010-08-02 13:39:01,2012-07-29 10:36:22
429,Вахтангова 5б,2,99,1,1280741941,https://vk.com/images/places/clubs.png,54.851557,83.046481,Капкан,4,1505495184,False,2010-08-02 13:39:01,2017-09-15 20:06:24
430,Богдана Хмельницкого 19,0,99,1,1280741941,https://vk.com/images/places/clubs.png,55.069932,82.94189,Отдых,4,1381021417,False,2010-08-02 13:39:01,2013-10-06 05:03:37
431,Красный просп. 167,2,99,1,1280741941,https://vk.com/images/places/clubs.png,55.064323,82.910279,Пульс,4,1345895925,False,2010-08-02 13:39:01,2012-08-25 15:58:45
432,Фрунзе 2,35,99,1,1280741941,https://vk.com/images/places/clubs.png,55.035756,82.915112,Труба,4,1482668118,False,2010-08-02 13:39:01,2016-12-25 15:15:18
433,Павильон Урицкого 16,15,99,1,1280741941,https://vk.com/images/places/clubs.png,55.031211,82.9146,Alpen Grotte,4,1444762016,False,2010-08-02 13:39:01,2015-10-13 21:46:56
434,просп. Победы 312,22,158,1,1280741941,https://vk.com/images/places/clubs.png,55.189969,61.341235,Мистер Икс,4,1485278869,False,2010-08-02 13:39:01,2017-01-24 20:27:49
435,Октябрьская 42,1,99,1,1280741941,https://vk.com/images/places/clubs.png,55.02427,82.920115,Амнезия,4,1377615928,False,2010-08-02 13:39:01,2013-08-27 19:05:28
436,Генерала Хазова 3,4,119,1,1280741941,https://vk.com/images/places/clubs.png,47.24186,39.700685,Paradox,4,1422804639,False,2010-08-02 13:39:01,2015-02-01 18:30:39
437,Школьная 2а,2,119,1,1280741941,https://vk.com/images/places/clubs.png,47.274133,39.734255,The Real McCoy,4,1382120682,False,2010-08-02 13:39:01,2013-10-18 22:24:42
438,просп. Космонавтов 15а,10,119,1,1280741941,https://vk.com/images/places/clubs.png,47.285767,39.715763,Авеню,4,1485441280,False,2010-08-02 13:39:01,2017-01-26 17:34:40
439,Коммунистический просп. 10,1,119,1,1280741941,https://vk.com/images/places/clubs.png,47.209047,39.64101,Подводный мир,4,1350332738,False,2010-08-02 13:39:01,2012-10-16 00:25:38
440,Шаумяна 71,14,119,1,1280741941,https://vk.com/images/places/clubs.png,47.221435,39.715336,Баба Люба,4,1489253789,False,2010-08-02 13:39:01,2017-03-11 20:36:29
441,Крепостной пер. 70,1,119,1,1280741941,https://vk.com/images/places/clubs.png,47.225664,39.737013,Relax,4,1499851644,False,2010-08-02 13:39:01,2017-07-12 12:27:24
442,просп. Шолохова 128,4,119,1,1280741941,https://vk.com/images/places/clubs.png,47.242129,39.765229,Люди,4,1501943667,False,2010-08-02 13:39:01,2017-08-05 17:34:27
443,просп. Сельмаш 3,10,119,1,1280741941,https://vk.com/images/places/clubs.png,47.249721,39.763324,Подземка,4,1504304181,False,2010-08-02 13:39:01,2017-09-02 01:16:21
444,Октябрьский б-р 32,3,110,1,1280741941,https://vk.com/images/places/clubs.png,57.973599,56.234815,Crazy Club,4,1487519113,False,2010-08-02 13:39:01,2017-02-19 18:45:13
445,Социалистическая 55,18,119,1,1280741941,https://vk.com/images/places/clubs.png,47.219146,39.708437,Cuba Libre,4,1472467734,False,2010-08-02 13:39:01,2016-08-29 13:48:54
446,Береговая 10,1,119,1,1280741941,https://vk.com/images/places/clubs.png,47.213216,39.711033,Титаник,4,1347716728,False,2010-08-02 13:39:01,2012-09-15 17:45:28
447,Левобережная 72,66,119,1,1280741941,https://vk.com/images/places/clubs.png,47.203917,39.76941,Embargo,4,1504599930,False,2010-08-02 13:39:01,2017-09-05 11:25:30
448,просп. Стачки 222,7,119,1,1280741941,https://vk.com/images/places/clubs.png,47.212616,39.617896,Золотая подкова,4,1473948592,False,2010-08-02 13:39:01,2016-09-15 17:09:52
449,Буденновский просп. ,7,119,1,1280741941,https://vk.com/images/places/clubs.png,47.228736,39.703847,Chester Pub,4,1496143947,False,2010-08-02 13:39:01,2017-05-30 14:32:27
450,Плехановская 9,7,42,1,1280741941,https://vk.com/images/places/clubs.png,51.662384,39.198517,Фламинго,4,1391940052,False,2010-08-02 13:39:01,2014-02-09 14:00:52
451,просп. Стачки 213,3,119,1,1280741941,https://vk.com/images/places/clubs.png,47.210914,39.63279,Флэш,4,1378043458,False,2010-08-02 13:39:01,2013-09-01 17:50:58
452,пл. Труда 2,3,169,1,1280741941,https://vk.com/images/places/clubs.png,57.628684,39.866388,Пятница,4,1449821613,False,2010-08-02 13:39:01,2015-12-11 11:13:33
453,Малышева 53,0,49,1,1280741941,https://vk.com/images/places/clubs.png,56.836416,60.615661,Parkking,4,1355592171,False,2010-08-02 13:39:01,2012-12-15 21:22:51
454,Москворечье 31К2,2,1,1,1280741941,https://vk.com/images/places/clubs.png,55.645857,37.659811,Шансон,4,1347551631,False,2010-08-02 13:39:01,2012-09-13 19:53:51
455,Арбат 20,50,1,1,1280741941,https://vk.com/images/places/clubs.png,55.75052,37.593273,Doolin House,4,1503987983,False,2010-08-02 13:39:01,2017-08-29 09:26:23
456,Земляной Вал 50,28,1,1,1280741941,https://vk.com/images/places/clubs.png,55.7513,37.654161,Концерт,4,1454149748,False,2010-08-02 13:39:01,2016-01-30 13:29:08
457,8-я линия В.О. 1К20,2,2,1,1280741941,https://vk.com/images/places/clubs.png,59.936197,30.28369,V-illa,4,1387991441,False,2010-08-02 13:39:01,2013-12-25 21:10:41
458,Дмитровское ш. 1К27,11,1,1,1280741941,https://vk.com/images/places/clubs.png,55.810683,37.578451,Молодая гвардия,4,1507202243,False,2010-08-02 13:39:01,2017-10-05 14:17:23
459,Рылеева 12,1,2,1,1280741941,https://vk.com/images/places/clubs.png,59.942723,30.358475,Jam Point,4,1351939765,False,2010-08-02 13:39:01,2012-11-03 14:49:25
460,Маяковского 51а,3,1,1,1280741941,https://vk.com/images/places/clubs.png,55.732154,37.620609,Bells,4,1354376162,False,2010-08-02 13:39:01,2012-12-01 19:36:02
461,Московский просп. 21,6,2,1,1280741941,https://vk.com/images/places/clubs.png,59.917001,30.316596,Havana Club,4,1386504486,False,2010-08-02 13:39:01,2013-12-08 16:08:06
462,Столешников пер. 7К1,1,1,1,1280741941,https://vk.com/images/places/clubs.png,55.763012,37.61441,Пластилин,4,1337691953,False,2010-08-02 13:39:01,2012-05-22 17:05:53
463,Большой просп. В.О. 80,1,2,1,1280741941,https://vk.com/images/places/clubs.png,59.930241,30.253435,Джамбала,4,1482929972,False,2010-08-02 13:39:01,2016-12-28 15:59:32
464,В.Масловка 21,6,1,1,1280741941,https://vk.com/images/places/clubs.png,55.795894,37.560529,Кактус,4,1431166960,False,2010-08-02 13:39:01,2015-05-09 13:22:40
465,Радищева 19К2,3,1,1,1280741941,https://vk.com/images/places/clubs.png,55.664228,37.660943,Zona,4,1416687404,False,2010-08-02 13:39:01,2014-11-22 23:16:44
466,Октябрьский 1,1,1,1,1280741941,https://vk.com/images/places/clubs.png,55.774836,37.609326,Эгоист,4,1342803492,False,2010-08-02 13:39:01,2012-07-20 20:58:12
467,Гороховая 22,10,2,1,1280741941,https://vk.com/images/places/clubs.png,59.931156,30.318383,Zoom,4,1449872439,False,2010-08-02 13:39:01,2015-12-12 01:20:39
468,Ленинский просп. 6,19,1,1,1280741941,https://vk.com/images/places/clubs.png,55.727176,37.606936,Точка,4,1366997514,False,2010-08-02 13:39:01,2013-04-26 21:31:54
469,Заставская 33,6,2,1,1280741941,https://vk.com/images/places/clubs.png,59.889467,30.315446,Триэль,4,1501331168,False,2010-08-02 13:39:01,2017-07-29 15:26:08
470,Страстной б-р 8а,18,1,1,1280741941,https://vk.com/images/places/clubs.png,55.766258,37.610767,VIP,4,1393026678,False,2010-08-02 13:39:01,2014-02-22 03:51:18
471,Уральская 8а,5,2,1,1280741941,https://vk.com/images/places/clubs.png,59.952281,30.263406,Классик,4,1496863923,False,2010-08-02 13:39:01,2017-06-07 22:32:03
472,Софийская 47,2,2,1,1280741941,https://vk.com/images/places/clubs.png,59.870913,30.405457,Help,4,1342879246,False,2010-08-02 13:39:01,2012-07-21 18:00:46
473,Котина 2,3,2,1,1280741941,https://vk.com/images/places/clubs.png,59.855927,30.209346,Cotin Club,4,1431002052,False,2010-08-02 13:39:01,2015-05-07 15:34:12
474,Маяковского 50,10,2,1,1280741941,https://vk.com/images/places/clubs.png,59.942858,30.354639,Красный лис,4,1506618852,False,2010-08-02 13:39:01,2017-09-28 20:14:12
475,3-я ул. Ямского поля 15,97,1,1,1280741941,https://vk.com/images/places/clubs.png,55.782529,37.579306,Golden Girls,4,1501871863,False,2010-08-02 13:39:01,2017-08-04 21:37:43
476,Куусинена 19а,8,1,1,1280741941,https://vk.com/images/places/clubs.png,55.788019,37.51123,Душа и тело,4,1460811356,False,2010-08-02 13:39:01,2016-04-16 15:55:56
477,Климентовский пер. 10К1,1,1,1,1280741941,https://vk.com/images/places/clubs.png,55.741039,37.627777,Апшу,4,1398891496,False,2010-08-02 13:39:01,2014-05-01 00:58:16
478,Новослободская 23,1,1,1,1280741941,https://vk.com/images/places/clubs.png,55.781474,37.598366,Мандат,4,1347167605,False,2010-08-02 13:39:01,2012-09-09 09:13:25
479,2-й Колобовский пер. 12,11,1,1,1280741941,https://vk.com/images/places/clubs.png,55.769266,37.616431,Элефант,4,1506502950,False,2010-08-02 13:39:01,2017-09-27 12:02:30
480,Строгинское ш. ,5,1,1,1280741941,https://vk.com/images/places/clubs.png,55.753559,37.609218,Beach Club,4,1466588216,False,2010-08-02 13:39:01,2016-06-22 12:36:56
481,Петровка 18К2,6,1,1,1280741968,https://vk.com/images/places/clubs.png,55.765979,37.615587,911 Aurora,4,1425237512,False,2010-08-02 13:39:28,2015-03-01 22:18:32
482,Спиридоновка 40К26,11,1,1,1280741968,https://vk.com/images/places/clubs.png,55.76328,37.58862,Эгоист Голд,4,1503955617,False,2010-08-02 13:39:28,2017-08-29 00:26:57
483,Каланчевская 15а,2,1,1,1280741968,https://vk.com/images/places/clubs.png,55.77233,37.651834,Бард-ретро,4,1280930737,False,2010-08-02 13:39:28,2010-08-04 18:05:37
484,наб. реки Фонтанки 11,213,2,1,1280741968,https://vk.com/images/places/clubs.png,59.936755,30.342853,Пурга,4,1507403643,False,2010-08-02 13:39:28,2017-10-07 22:14:03
485,Новорязанская 26,3,1,1,1280741968,https://vk.com/images/places/clubs.png,55.771763,37.66565,Контакт,4,1355375067,False,2010-08-02 13:39:28,2012-12-13 09:04:27
486,Баумана 58,1,60,1,1280741968,https://vk.com/images/places/clubs.png,55.789983,49.115366,Белая акула,4,1346818332,False,2010-08-02 13:39:28,2012-09-05 08:12:12
487,Мироновская 2,4,1,1,1280741968,https://vk.com/images/places/clubs.png,55.785382,37.734237,Atmosfera,4,1461173338,False,2010-08-02 13:39:28,2016-04-20 20:28:58
488,Чапаева 3,3,2,1,1280741968,https://vk.com/images/places/clubs.png,59.958494,30.333143,Абсурд,4,1395474107,False,2010-08-02 13:39:28,2014-03-22 11:41:47
489,Адоратского 12а,12,60,1,1280741968,https://vk.com/images/places/clubs.png,55.832389,49.14841,London,4,1477242768,False,2010-08-02 13:39:28,2016-10-23 20:12:48
490,просп. Мориса Тореза ,1,2,1,1280741968,https://vk.com/images/places/clubs.png,60.014828,30.340653,Relax,4,1338663815,False,2010-08-02 13:39:28,2012-06-02 23:03:35
491,Б.Лубянка 24,187,1,1,1280741968,https://vk.com/images/places/clubs.png,55.765301,37.63111,Скромное обаяние буржуазии,4,1450126141,False,2010-08-02 13:39:28,2015-12-14 23:49:01
492,Шишкова ,4,61,1,1280741968,https://vk.com/images/places/clubs.png,54.722586,20.462984,Универсал,4,1388621251,False,2010-08-02 13:39:28,2014-01-02 04:07:31
493,просп. Большевиков ,4,2,1,1280741968,https://vk.com/images/places/clubs.png,59.894874,30.491444,Пати-фон,4,1343111305,False,2010-08-02 13:39:28,2012-07-24 10:28:25
494,Карла Маркса 116,5,42,1,1280741968,https://vk.com/images/places/clubs.png,51.674237,39.193361,NC,4,1398732975,False,2010-08-02 13:39:28,2014-04-29 04:56:15
495,просп. Дзержинского ,0,99,1,1280741968,https://vk.com/images/places/clubs.png,55.058085,82.979948,Пейот,4,1292169890,False,2010-08-02 13:39:28,2010-12-12 19:04:50
496,Болотная наб. 3К1,482,1,1,1280741968,https://vk.com/images/places/clubs.png,55.739787,37.610125,Rolling Stone Bar & Tattoo,4,1506867934,False,2010-08-02 13:39:28,2017-10-01 17:25:34
497,Ленина 88,28,110,1,1280741968,https://vk.com/images/places/clubs.png,58.005677,56.209748,Wonder Hall,4,1505037050,False,2010-08-02 13:39:28,2017-09-10 12:50:50
498,Караванная 26,20,2,1,1280741968,https://vk.com/images/places/clubs.png,59.933952,30.342126,Трибунал-бар,4,1472385555,False,2010-08-02 13:39:28,2016-08-28 14:59:15
499,наб. канала Грибоедова 6,3,2,1,1280741968,https://vk.com/images/places/clubs.png,59.937423,30.327888,Embargo,4,1353103702,False,2010-08-02 13:39:28,2012-11-17 02:08:22
500,Соловьиный пр. 4а,2,1,1,1280741968,https://vk.com/images/places/clubs.png,55.616066,37.550199,Club 31,4,1504897019,False,2010-08-02 13:39:28,2017-09-08 21:56:59
501,Декабристов 4К1,5,1,1,1280741968,https://vk.com/images/places/clubs.png,55.86748,37.589985,Action,4,1432961854,False,2010-08-02 13:39:28,2015-05-30 07:57:34
502,Наметкина 9,3,1,1,1280741968,https://vk.com/images/places/clubs.png,55.664177,37.550899,Колизей,4,1479579210,False,2010-08-02 13:39:28,2016-11-19 21:13:30
503,Павловское ш. 13,0,1,1,1280741968,https://vk.com/images/places/clubs.png,55.740771,37.660449,Табуретка,4,,True,2010-08-02 13:39:28,2010-08-02 13:39:28
504,просп. Мира 26,9,1,1,1280741968,https://vk.com/images/places/clubs.png,55.777611,37.635027,Мадам Галифэ,4,1426441435,False,2010-08-02 13:39:28,2015-03-15 20:43:55
505,Космодамианская наб. 2,48,1,1,1280741968,https://vk.com/images/places/clubs.png,55.745595,37.638773,Fabrique,4,1477421493,False,2010-08-02 13:39:28,2016-10-25 21:51:33
506,наб. реки Фонтанки 11,2,2,1,1280741968,https://vk.com/images/places/clubs.png,59.947586,30.338883,Пурга 2,4,1385756748,False,2010-08-02 13:39:28,2013-11-30 00:25:48
507,Церковная 2К1,0,1,1,1280741968,https://vk.com/images/places/clubs.png,55.749121,37.662389,Сол,4,,True,2010-08-02 13:39:28,2010-08-02 13:39:28
508,Ленинградский просп. 24а,13,1,1,1280741968,https://vk.com/images/places/clubs.png,55.783251,37.574336,Ленинград,4,1405196510,False,2010-08-02 13:39:28,2014-07-13 00:21:50
509,Столешников пер. 11,222,1,1,1280741968,https://vk.com/images/places/clubs.png,55.763366,37.61583,Gogol`,4,1505415853,False,2010-08-02 13:39:28,2017-09-14 22:04:13
510,Блохина 15,366,2,1,1280741968,https://vk.com/images/places/clubs.png,59.952029,30.301199,Котельная «Камчатка»,4,1506797106,False,2010-08-02 13:39:28,2017-09-30 21:45:06
511,Кривоколенный пер. 10К5,40,1,1,1280741968,https://vk.com/images/places/clubs.png,55.761664,37.636015,Bilingua,4,1367941914,False,2010-08-02 13:39:28,2013-05-07 19:51:54
512,Складочная 1,39,1,1,1280741968,https://vk.com/images/places/clubs.png,55.798839,37.59321,Gaudi Club,4,1495524082,False,2010-08-02 13:39:28,2017-05-23 10:21:22
513,Гражданская 3,0,2,1,1280741968,https://vk.com/images/places/clubs.png,59.928717,30.314673,Пре,4,,True,2010-08-02 13:39:28,2010-08-02 13:39:28
514,М.Ордынка 37К1,18,1,1,1280741968,https://vk.com/images/places/clubs.png,55.732626,37.625774,Jet Set,4,1445918660,False,2010-08-02 13:39:28,2015-10-27 07:04:20
515,наб. Лейтенанта Шмидта ,3,2,1,1280741968,https://vk.com/images/places/clubs.png,59.933456,30.276365,Пуэр,4,1347263406,False,2010-08-02 13:39:28,2012-09-10 11:50:06
516,Новослободская 14К4,5,1,1,1280741968,https://vk.com/images/places/clubs.png,55.780841,37.59992,Loft Bar,4,1355751312,False,2010-08-02 13:39:28,2012-12-17 17:35:12
517,Правды 21К2,24,1,1,1280741968,https://vk.com/images/places/clubs.png,55.788312,37.580202,Братья Блюз,4,1495324618,False,2010-08-02 13:39:28,2017-05-21 02:56:58
518,Новосущевский пер. 6,5,1,1,1280741968,https://vk.com/images/places/clubs.png,55.790018,37.60549,Скворечник,4,1394789125,False,2010-08-02 13:39:28,2014-03-14 13:25:25
519,Академический просп. К110,175,1,1,1280741968,https://vk.com/images/places/clubs.png,55.765534,37.472584,Sexton,4,1506195563,False,2010-08-02 13:39:28,2017-09-23 22:39:23
520,наб. Северной Двины 44,10,1,1,1280741968,https://vk.com/images/places/clubs.png,55.722771,37.626762,Инкогнито,4,1446245683,False,2010-08-02 13:39:28,2015-10-31 01:54:43
521,Б.Овчинниковский пер. 24,1,1,1,1280741968,https://vk.com/images/places/clubs.png,55.74412,37.628765,Центр авторской песни,4,1315584707,False,2010-08-02 13:39:28,2011-09-09 20:11:47
522,Мясницкая К3,20,1,1,1280741968,https://vk.com/images/places/clubs.png,55.76019,37.629771,Петрович,4,1482490048,False,2010-08-02 13:39:28,2016-12-23 13:47:28
523,Мичуринский просп. 4К3,0,1,1,1280741968,https://vk.com/images/places/clubs.png,55.683798,37.468578,Сейшн,4,1391892578,False,2010-08-02 13:39:28,2014-02-09 00:49:38
524,Яузская 5,39,1,1,1280741968,https://vk.com/images/places/clubs.png,55.749344,37.645285,Культ,4,1439056846,False,2010-08-02 13:39:28,2015-08-08 21:00:46
525,Б.Садовая 8,179,1,1,1280741968,https://vk.com/images/places/clubs.png,55.765959,37.591503,Б2,4,1424039343,False,2010-08-02 13:39:28,2015-02-16 01:29:03
526,Варварка 14,0,1,1,1280741968,https://vk.com/images/places/clubs.png,55.752566,37.632125,Матрица,4,1340631527,False,2010-08-02 13:39:28,2012-06-25 17:38:47
527,Бажова 75а,2,49,1,1280741968,https://vk.com/images/places/clubs.png,56.844284,60.626045,Аэробус,4,1338095419,False,2010-08-02 13:39:28,2012-05-27 09:10:19
528,Поморская 125а,10,1,1,1280741968,https://vk.com/images/places/clubs.png,55.803889,37.743121,Локстрим,4,1353745461,False,2010-08-02 13:39:28,2012-11-24 12:24:21
529,ш. Энтузиастов 7а,66,1,1,1280741968,https://vk.com/images/places/clubs.png,55.749476,37.701161,Эра,4,1461357512,False,2010-08-02 13:39:28,2016-04-22 23:38:32
530,Бережковская наб. 8,21,1,1,1280741968,https://vk.com/images/places/clubs.png,55.739463,37.56627,Корабль «Викинг»,4,1468000227,False,2010-08-02 13:39:28,2016-07-08 20:50:27
531,Н.Арбат 21,410,1,1,1280741968,https://vk.com/images/places/clubs.png,55.751943,37.585157,Арбат,4,1505362195,False,2010-08-02 13:39:28,2017-09-14 07:09:55
532,Чертановская 32К3,6,1,1,1280741968,https://vk.com/images/places/clubs.png,55.619,37.591656,Шпилька,4,1465531001,False,2010-08-02 13:39:28,2016-06-10 06:56:41
533,Б.Овчинниковский пер. 24К4,0,1,1,1280741968,https://vk.com/images/places/clubs.png,55.743548,37.62996,Дом,4,1353077003,False,2010-08-02 13:39:28,2012-11-16 18:43:23
534,Ср.Тишинский пер. 5К7,1,1,1,1280741968,https://vk.com/images/places/clubs.png,55.769803,37.576609,Shake,4,1318886493,False,2010-08-02 13:39:28,2011-10-18 01:21:33
535,Маросейка 6К8,0,1,1,1280741968,https://vk.com/images/places/clubs.png,55.757126,37.635215,Byblos,4,,True,2010-08-02 13:39:28,2010-08-02 13:39:28
536,Троицкий просп. 8,87,1,1,1280741968,https://vk.com/images/places/clubs.png,55.810946,37.49877,CDK МАИ,4,1506869200,False,2010-08-02 13:39:28,2017-10-01 17:46:40
537,просп. Мира ,3,1,1,1280741968,https://vk.com/images/places/clubs.png,55.810461,37.63765,Солярис,4,1405859629,False,2010-08-02 13:39:28,2014-07-20 16:33:49
538,Рязанский просп. 39,16,1,1,1280741968,https://vk.com/images/places/clubs.png,55.728535,37.75788,DKDance,4,1442584221,False,2010-08-02 13:39:28,2015-09-18 16:50:21
539,Раушская наб. 4К5,29,1,1,1280741968,https://vk.com/images/places/clubs.png,55.748397,37.626852,Вермель,4,1428922757,False,2010-08-02 13:39:28,2015-04-13 13:59:17
540,Б.Никитская 22К12,3,1,1,1280741968,https://vk.com/images/places/clubs.png,55.757151,37.602463,Гнездо глухаря,4,1458589912,False,2010-08-02 13:39:28,2016-03-21 22:51:52
541,просп. Академика Сахарова 14,2,1,1,1280741968,https://vk.com/images/places/clubs.png,55.769135,37.643076,Красная шапочка,4,1425161806,False,2010-08-02 13:39:28,2015-03-01 01:16:46
542,просп. Андропова ,6,1,1,1280741968,https://vk.com/images/places/clubs.png,55.679752,37.6638,Пена,4,1402165012,False,2010-08-02 13:39:28,2014-06-07 22:16:52
543,Б.Бронная 18,17,1,1,1280741968,https://vk.com/images/places/clubs.png,55.762895,37.601196,Forte,4,1495706780,False,2010-08-02 13:39:28,2017-05-25 13:06:20
544,пл. Конституции 2,98,2,1,1280741968,https://vk.com/images/places/clubs.png,59.850635,30.304936,Jagger,4,1501359961,False,2010-08-02 13:39:28,2017-07-29 23:26:01
545,просп. Чумбарова-Лучинского 27,2,1,1,1280741968,https://vk.com/images/places/clubs.png,55.802659,37.535314,27Б,4,1385516277,False,2010-08-02 13:39:28,2013-11-27 05:37:57
546,микр. Дзержинского 12К50,22,1,1,1280741968,https://vk.com/images/places/clubs.png,55.769687,37.67873,Швайн,4,1414784522,False,2010-08-02 13:39:28,2014-10-31 22:42:02
547,Пресненский вал 6К1,744,1,1,1280741968,https://vk.com/images/places/clubs.png,55.764283,37.564392,Шестнадцать тонн,4,1507396415,False,2010-08-02 13:39:28,2017-10-07 20:13:35
548,Старосадский пер. 5К6,16,1,1,1280741968,https://vk.com/images/places/clubs.png,55.756943,37.640866,Art Garbage,4,1417911807,False,2010-08-02 13:39:28,2014-12-07 03:23:27
549,ш. Энтузиастов 6,0,1,1,1280741968,https://vk.com/images/places/clubs.png,55.772041,37.612955,Cats,4,1330120999,False,2010-08-02 13:39:28,2012-02-25 02:03:19
550,пл. Славы 16К3,5,1,1,1280741968,https://vk.com/images/places/clubs.png,55.633404,37.766783,Neolit,4,1497206644,False,2010-08-02 13:39:28,2017-06-11 21:44:04
551,наб. Обводного канала 118,190,2,1,1280741968,https://vk.com/images/places/clubs.png,59.907456,30.3056,Зал ожидания,4,1506627611,False,2010-08-02 13:39:28,2017-09-28 22:40:11
552,Победы 11К1,2,1,1,1280741968,https://vk.com/images/places/clubs.png,55.750276,37.664644,Три обезьяны New Age,4,1455741850,False,2010-08-02 13:39:28,2016-02-17 23:44:10
553,Пятницкая 4,0,1,1,1280741968,https://vk.com/images/places/clubs.png,55.744941,37.626897,Третий путь,4,1310154698,False,2010-08-02 13:39:28,2011-07-08 23:51:38
554,Староваганьковский пер. 19,311,1,1,1280741968,https://vk.com/images/places/clubs.png,55.751361,37.606882,Ритм & Блюз кафе,4,1506716587,False,2010-08-02 13:39:28,2017-09-29 23:23:07
555,Зубовский б-р 25,26,1,1,1280741968,https://vk.com/images/places/clubs.png,55.736483,37.590057,Распутин,4,1478966414,False,2010-08-02 13:39:28,2016-11-12 19:00:14
556,Б.Златоустинский пер. 7,1179,1,1,1280741968,https://vk.com/images/places/clubs.png,55.758686,37.632668,Пропаганда,4,1507402603,False,2010-08-02 13:39:28,2017-10-07 21:56:43
557,Каретный Ряд 3К1,5,1,1,1280741968,https://vk.com/images/places/clubs.png,55.770304,37.609308,Парижская жизнь,4,1457344506,False,2010-08-02 13:39:28,2016-03-07 12:55:06
558,Н.Арбат 21К1,64,1,1,1280741968,https://vk.com/images/places/clubs.png,55.751943,37.585057,Метелица,4,1497483360,False,2010-08-02 13:39:28,2017-06-15 02:36:00
559,Марксистская 38,74,1,1,1280741968,https://vk.com/images/places/clubs.png,55.733878,37.666944,Кристалл,4,1501718659,False,2010-08-02 13:39:28,2017-08-03 03:04:19
560,Лубянский пр. 25К1,393,1,1,1280741968,https://vk.com/images/places/clubs.png,55.754598,37.634811,Китайский летчик Джао Да,4,1507426970,False,2010-08-02 13:39:28,2017-10-08 04:42:50
561,просп. Мира 116а,29,1,1,1280741968,https://vk.com/images/places/clubs.png,55.809575,37.63809,Белый медведь,4,1499668976,False,2010-08-02 13:39:28,2017-07-10 09:42:56
562,Тверская 17,14,1,1,1280741968,https://vk.com/images/places/clubs.png,55.763503,37.606514,Night Flight,4,1503534893,False,2010-08-02 13:39:28,2017-08-24 03:34:53
563,Потаповский пер. 8К2,12,1,1,1280741968,https://vk.com/images/places/clubs.png,55.760444,37.641351,Проект ОГИ,4,1335204952,False,2010-08-02 13:39:28,2012-04-23 22:15:52
564,Садовая-Самотечная 4К2,42,1,1,1280741968,https://vk.com/images/places/clubs.png,55.772558,37.613225,B.B.King,4,1497119494,False,2010-08-02 13:39:28,2017-06-10 21:31:34
565,Красная Пресня 23К1б,8,1,1,1280741968,https://vk.com/images/places/clubs.png,55.761715,37.566701,Dolls,4,1436446600,False,2010-08-02 13:39:28,2015-07-09 15:56:40
566,Горьковское ш. 15,184,1,1,1280741968,https://vk.com/images/places/clubs.png,55.782443,37.579306,Golden Palace,4,1504529816,False,2010-08-02 13:39:28,2017-09-04 15:56:56
567,Бережковская наб. 2,5,1,1,1280741968,https://vk.com/images/places/clubs.png,55.741328,37.56715,Grand Prix,4,1466065692,False,2010-08-02 13:39:28,2016-06-16 11:28:12
568,2-я Тверская-Ямская 40К3,5,1,1,1280741968,https://vk.com/images/places/clubs.png,55.774229,37.590812,Platinum Gentlemen`s Club,4,1427330515,False,2010-08-02 13:39:28,2015-03-26 03:41:55
569,Беринга 38,36,2,1,1280741968,https://vk.com/images/places/clubs.png,59.946293,30.232415,Арктика,4,1505827810,False,2010-08-02 13:39:28,2017-09-19 16:30:10
570,Лиговский просп. 53,30,2,1,1280741968,https://vk.com/images/places/clubs.png,59.929136,30.359279,ГЭЗ-21,4,1483629079,False,2010-08-02 13:39:28,2017-01-05 18:11:19
571,Московский просп. 10,2,2,1,1280741968,https://vk.com/images/places/clubs.png,59.923964,30.320135,Пятница,4,1354459352,False,2010-08-02 13:39:28,2012-12-02 18:42:32
572,Бронницкая 4,3,2,1,1280741968,https://vk.com/images/places/clubs.png,59.916527,30.320746,Taxi,4,1417191425,False,2010-08-02 13:39:28,2014-11-28 19:17:05
573,Невский просп. 91,3,2,1,1280741968,https://vk.com/images/places/clubs.png,59.930241,30.365338,Jazz & Френия,4,1503679756,False,2010-08-02 13:39:28,2017-08-25 19:49:16
574,Соляной пер. 14,1,2,1,1280741968,https://vk.com/images/places/clubs.png,59.94321,30.341955,Neo,4,1456943220,False,2010-08-02 13:39:28,2016-03-02 21:27:00
575,М.Морская 5,0,2,1,1280741968,https://vk.com/images/places/clubs.png,59.936156,30.313775,Палитра,4,,True,2010-08-02 13:39:28,2010-08-02 13:39:28
576,Маяковского 16,53,2,1,1280741968,https://vk.com/images/places/clubs.png,59.936224,30.354738,Ливерпуль,4,1503931844,False,2010-08-02 13:39:28,2017-08-28 17:50:44
577,Чайковского 59,10,2,1,1280741968,https://vk.com/images/places/clubs.png,59.946184,30.360263,Чаплин,4,1495388558,False,2010-08-02 13:39:28,2017-05-21 20:42:38
578,Дубининская 69,7,1,1,1280741968,https://vk.com/images/places/clubs.png,55.714964,37.634427,Fashion O.Z.O. Club,4,1424003199,False,2010-08-02 13:39:28,2015-02-15 15:26:39
579,наб. реки Фонтанки ,9,2,1,1280741968,https://vk.com/images/places/clubs.png,59.922634,30.319466,Манхэттен,4,1452874582,False,2010-08-02 13:39:28,2016-01-15 19:16:22
580,ская 89,0,72,1,1280741968,https://vk.com/images/places/clubs.png,28.37857,1.694097,People,4,1330482262,False,2010-08-02 13:39:28,2012-02-29 06:24:22
581,Набережная 2а,8,2,1,1280741968,https://vk.com/images/places/clubs.png,59.877529,29.925164,Грибоедов,4,1438592682,False,2010-08-02 13:39:28,2015-08-03 12:04:42
582,Зубовский б-р 27К5,0,1,1,1280741968,https://vk.com/images/places/clubs.png,55.736969,37.588072,Сафари Лодж,4,1380956031,False,2010-08-02 13:39:28,2013-10-05 10:53:51
583,наб. Лейтенанта Шмидта ,3,2,1,1280741968,https://vk.com/images/places/clubs.png,59.933499,30.27629,Остров,4,1408151062,False,2010-08-02 13:39:28,2014-08-16 05:04:22
584,пер. Антоненко 2,0,2,1,1280741968,https://vk.com/images/places/clubs.png,59.931332,30.310999,Порт,4,,True,2010-08-02 13:39:28,2010-08-02 13:39:28
585,Загородный просп. 27,116,2,1,1280741968,https://vk.com/images/places/clubs.png,59.924172,30.336709,Филармония джазовой музыки,4,1507321324,False,2010-08-02 13:39:28,2017-10-06 23:22:04
586,Шпалерная 33,98,2,1,1280741968,https://vk.com/images/places/clubs.png,59.948812,30.356652,JFC,4,1500832788,False,2010-08-02 13:39:28,2017-07-23 20:59:48
587,Невский просп. 60,12,2,1,1280741968,https://vk.com/images/places/clubs.png,59.934556,30.339521,Golden Dolls,4,1487521118,False,2010-08-02 13:39:28,2017-02-19 19:18:38
588,Кирпичный пер. 8,32,2,1,1280741968,https://vk.com/images/places/clubs.png,59.934867,30.317252,Maximus,4,1479260646,False,2010-08-02 13:39:28,2016-11-16 04:44:06
589,наб. Обводного канала 181,5,2,1,1280741968,https://vk.com/images/places/clubs.png,59.909463,30.294232,Кабаре,4,1419340638,False,2010-08-02 13:39:28,2014-12-23 16:17:18
590,наб. канала Грибоедова 5,34,2,1,1280741968,https://vk.com/images/places/clubs.png,59.939703,30.327627,Конюшенный Двор,4,1466242058,False,2010-08-02 13:39:28,2016-06-18 12:27:38
591,наб. канала Грибоедова ,1,2,1,1280741968,https://vk.com/images/places/clubs.png,59.903756,30.268778,Монро,4,1448304820,False,2010-08-02 13:39:28,2015-11-23 21:53:40
592,7-я Красноармейская 5,2,2,1,1280741968,https://vk.com/images/places/clubs.png,59.911845,30.316156,Манилов,4,1391927947,False,2010-08-02 13:39:28,2014-02-09 10:39:07
593,просп. Красного Знамени 1К3,9,2,1,1280741968,https://vk.com/images/places/clubs.png,59.930791,30.335299,Rossi`s Club,4,1489099422,False,2010-08-02 13:39:28,2017-03-10 01:43:42
594,Садовая 94,4,2,1,1280741968,https://vk.com/images/places/clubs.png,59.918088,30.290922,Два му,4,1504331126,False,2010-08-02 13:39:28,2017-09-02 08:45:26
595,Пушечная 3,17,1,1,1280741968,https://vk.com/images/places/clubs.png,55.761234,37.621426,Karma Bar,4,1501368788,False,2010-08-02 13:39:28,2017-07-30 01:53:08
596,Доброслободская 2К38,67,1,1,1280741968,https://vk.com/images/places/clubs.png,55.769231,37.669603,Fresh,4,1497685640,False,2010-08-02 13:39:28,2017-06-17 10:47:20
597,Косыгина 15,19,1,1,1280741968,https://vk.com/images/places/clubs.png,55.706406,37.554421,911,4,1399929895,False,2010-08-02 13:39:28,2014-05-13 01:24:55
598,Измайловский вал 2,4,1,1,1280741968,https://vk.com/images/places/clubs.png,55.783625,37.719127,Голодная кошка,4,1390400387,False,2010-08-02 13:39:28,2014-01-22 18:19:47
599,Олимпийский просп. 16К1,14,1,1,1280741968,https://vk.com/images/places/clubs.png,55.781117,37.626396,Show Girls,4,1387973638,False,2010-08-02 13:39:28,2013-12-25 16:13:58
600,Большевистская 55,15,110,1,1280741968,https://vk.com/images/places/clubs.png,58.011428,56.249206,Black Bar,4,1503996848,False,2010-08-02 13:39:28,2017-08-29 11:54:08
601,Красноармейская 168,13,119,1,1280741968,https://vk.com/images/places/clubs.png,47.227586,39.712974,Фабрика,4,1393363780,False,2010-08-02 13:39:28,2014-02-26 01:29:40
602,Лубянский пр. 7К1,46,1,1,1280741968,https://vk.com/images/places/clubs.png,55.7586,37.630203,Туннель,4,1391181847,False,2010-08-02 13:39:28,2014-01-31 19:24:07
603,Литовский б-р 7,9,1,1,1280741968,https://vk.com/images/places/clubs.png,55.612833,37.536895,B-52,4,1412598855,False,2010-08-02 13:39:28,2014-10-06 16:34:15
